name,category,city,district,parcelAddress,roadAddress,roadPostal,districtPostal,latitude,longitude,xCoordinate,yCoordinate
매취랑 동대문점,한식,서울특별시,중구,서울특별시 중구 을지로6가 18-137,"서울특별시 중구 장충단로 249-10, 2층 (을지로6가)",4564,100-851,37.56749810168000,127.00775643133200,200614.497822789,451667.793301393
BLUE BOX(블루박스),기타,서울특별시,노원구,서울특별시 노원구 공릉동 334-3,서울특별시 노원구 공릉로 127 (공릉동),1837,139-802,37.62165796137520,127.0788353880460,206888.278816502,457681.129401558
치카바,일식,서울특별시,송파구,서울특별시 송파구 가락동 84-6,"서울특별시 송파구 송이로20길 12-1, 1층 101호 (가락동)",5712,138-803,37.49607930028220,127.11996353057800,210536.379531854,443748.684430769
오고보,경양식,서울특별시,송파구,서울특별시 송파구 방이동 57 One57빌당,"서울특별시 송파구 올림픽로34길 27-23, One57빌딩 2층 201호 (방이동)",5547,138-828,37.51533319596560,127.11206444574400,209835.419891828,445884.536808795
또봉이통닭 가락본동점,호프/통닭,서울특별시,송파구,서울특별시 송파구 가락동 46-11 문종빌딩,"서울특별시 송파구 오금로36길 64, 문종빌딩 1층 (가락동)",5706,138-801,37.499038226821200,127.12176128291300,210694.913956667,444077.25458923
대치동그집1981,한식,서울특별시,강동구,서울특별시 강동구 성내동 537-3,"서울특별시 강동구 성내로5길 31, 1층 101호 (성내동)",5392,134-850,37.53146195576240,127.12389941858300,210879.251613939,447675.739670456
왔따쪽갈비,한식,서울특별시,강동구,서울특별시 강동구 천호동 46-28,"서울특별시 강동구 천중로43길 55, 1층 102호 (천호동)",5315,134-861,37.54375963473100,127.14131467204300,212416.334313854,449042.643309731
서촌 곳간,한식,서울특별시,종로구,서울특별시 종로구 필운동 146-1 아이에스빌딩 1층,"서울특별시 종로구 필운대로 6-1, 아이에스빌딩 1층 (필운동)",3041,110-044,37.57685808979360,126.96941767912500,197228.18297893,452706.97234696
컴플리트커피,기타,서울특별시,중랑구,서울특별시 중랑구 면목동 198-27,"서울특별시 중랑구 중랑천로 67, 1층 (면목동)",2118,131-823,37.59138463232620,127.07291283123900,206368.067800804,454321.062421746
복림문,중국식,서울특별시,중구,서울특별시 중구 황학동 450,"서울특별시 중구 퇴계로87길 43-15, 1층 (황학동)",4576,100-869,37.56768972777360,127.02030009022000,201722.540160044,451689.215255174
카페 라,기타,서울특별시,중구,서울특별시 중구 장충동2가 202,"서울특별시 중구 동호로 249, 지하1층 (장충동2가)",4605,100-856,37.55695240601040,127.00604773709000,200463.625303538,450497.460903907
역전우동0410 숙대입구점,일식,서울특별시,용산구,서울특별시 용산구 청파동3가 22-2,"서울특별시 용산구 청파로 277, 1층 (청파동3가)",4313,140-133,37.54452694886300,126.97051294525000,197323.765241203,449118.950056912
끼(KKI),"외국음식전문점(인도,태국등)",서울특별시,용산구,서울특별시 용산구 용산동2가 1-510,"서울특별시 용산구 신흥로 97-6, 2층 (용산동2가)",4337,140-833,37.54538847456260,126.98487737005700,198593.055505142,449214.246833049
마라공방,중국식,서울특별시,구로구,서울특별시 구로구 고척동 76-153,"서울특별시 구로구 중앙로6길 50, 2층 (고척동)",8223,152-826,37.50029169476900,126.8665750754810,188132.565624313,444217.948267109
뮤지컬펍넘버스테이지,기타,서울특별시,강남구,서울특별시 강남구 역삼동 817-18,"서울특별시 강남구 강남대로96길 15, 지하1층 (역삼동)",6129,135-931,37.50028660721560,127.02825579682700,202427.491136113,444209.275456205
차선책서울,기타,서울특별시,강남구,서울특별시 강남구 신사동 657-41,"서울특별시 강남구 선릉로155길 14, 1층,2층 (신사동)",6018,135-897,37.525743374196700,127.03862477832200,203343.124013264,447034.668578334
아가젤라또(성수),기타,서울특별시,성동구,서울특별시 성동구 성수동2가 316-31,"서울특별시 성동구 연무장길 41-19, 지1층 B101호 (성수동2가)",4782,133-835,37.54357622904020,127.05410765565100,204710.448654378,449014.347240596
단골손님 상봉점,한식,서울특별시,중랑구,서울특별시 중랑구 상봉동 89-1,"서울특별시 중랑구 망우로50길 15, 1층 101호 (상봉동)",2149,131-859,37.59664975885370,127.08922116113100,207807.657649212,454906.600906178
고기반햄반 김치찌개&김치찜,한식,서울특별시,성동구,서울특별시 성동구 금호동3가 1302,"서울특별시 성동구 장터길 21-1, 1층 (금호동3가)",4724,133-807,37.54866865838480,127.01835643316300,201551.241518861,449578.294363659
향래원마라탕,중국식,서울특별시,동대문구,서울특별시 동대문구 제기동 714-18,"서울특별시 동대문구 고산자로 511-1, 1층 (제기동)",2478,130-864,37.585642202011200,127.03827455024200,203309.519200543,453682.00124782
유유(uu),경양식,서울특별시,중랑구,서울특별시 중랑구 면목동 91-1 103호,"서울특별시 중랑구 봉우재로 146, 103호 (면목동)",2155,131-817,37.593305088976,127.08909316907100,207796.704807233,454535.408914871
별관,한식,서울특별시,성북구,서울특별시 성북구 동선동1가 85-38,"서울특별시 성북구 동소문로24길 31, 지하1층 (동선동1가)",2845,136-051,37.59247829703330,127.01896883157600,201604.411431914,454440.144465121
한성돼,식육(숯불구이),서울특별시,성북구,서울특별시 성북구 동소문동2가 285,"서울특별시 성북구 동소문로2길 63, 1층 (동소문동2가)",2860,136-032,37.58908804245770,127.00946255034500,200764.987289261,454063.784728318
도쿄술집(성신여대점),기타,서울특별시,성북구,서울특별시 성북구 동선동3가 1,"서울특별시 성북구 동소문로26가길 3, 지상1층 (동선동3가)",2845,136-053,37.594680553946900,127.01952521976300,201653.494954375,454684.553804488
현방오백소갈비살,한식,서울특별시,도봉구,서울특별시 도봉구 쌍문동 19-2,"서울특별시 도봉구 도당로2길 7, 1층 (쌍문동)",1393,132-858,37.659662495167200,127.03547515263300,203059.25895531,461896.491182226
더피자 은평점,한식,서울특별시,은평구,서울특별시 은평구 대조동 211-10,"서울특별시 은평구 역말로9가길 15, 1층 (대조동)",3389,122-843,37.612998547601900,126.92025195856400,192889.101538864,456720.317606803
소담유부,일식,서울특별시,성북구,서울특별시 성북구 하월곡동 21-78,"서울특별시 성북구 화랑로13길 28, 1층 (하월곡동)",2748,136-865,37.604802012472600,127.04229297337,203663.461928421,455808.447873565
토쿠이,일식,서울특별시,마포구,서울특별시 마포구 연남동 224-18,"서울특별시 마포구 동교로 282, 지1층 (연남동)",3981,121-865,37.56439685947280,126.9266575591690,193450.339922795,451326.189406923
도시피자 상암점,경양식,서울특별시,서대문구,서울특별시 서대문구 북가좌동 371-12 국제빌딩,"서울특별시 서대문구 수색로 144, 국제빌딩 지1층 105호 (북가좌동)",3714,120-816,37.57552889552990,126.90524368463400,191559.918118738,452563.291844785
몽란,기타,서울특별시,성북구,서울특별시 성북구 동선동4가 122-4,"서울특별시 성북구 동소문로 129-1, 1~3층 (동선동4가)",2829,136-054,37.594680518278900,127.01870102216000,201580.715751086,454684.535654679
옥자 성수,기타,서울특별시,성동구,서울특별시 성동구 성수동2가 273-13 태광산업,"서울특별시 성동구 연무장15길 11, 태광산업 가(C)동 2층 C202호 (성수동2가)",4783,133-831,37.542729772415200,127.05927979866000,205167.535545926,448920.682564138
전주밥차,한식,서울특별시,마포구,서울특별시 마포구 염리동 168-9 재화스퀘어,"서울특별시 마포구 독막로 311, 재화스퀘어 지하1층 B113호 (염리동)",4156,121-874,37.544195416614100,126.94753062207100,195292.972627854,449083.060282147
하봉참치스시,일식,서울특별시,마포구,서울특별시 마포구 공덕동 242-71 소담빌딩,"서울특별시 마포구 마포대로12길 36, 소담빌딩 2층 (공덕동)",4211,121-803,37.547514054840100,126.95466885834900,195923.907373498,449451.016170423
충당,기타,서울특별시,마포구,서울특별시 마포구 합정동 388-10,"서울특별시 마포구 월드컵로3길 31-8, 2층 (합정동)",4025,121-885,37.55023464707390,126.91089184139000,192056.110506184,449755.735416763
중국집입니다,중국식,서울특별시,강남구,서울특별시 강남구 삼성동 8-2 브라운스톤 레전드,"서울특별시 강남구 선릉로 660, 지하1층 B110호,B111호 키친42강남구청점 10호 (삼성동, 브라운스톤 레전드)",6088,135-864,37.515752984155700,127.04238438476800,203675.905036013,445926.119732235
봉구스 밥버거,한식,서울특별시,강서구,서울특별시 강서구 등촌동 510-12 1층,"서울특별시 강서구 등촌로51길 9, 1층 (등촌동)",7668,157-836,37.54897055137460,126.86278460496200,187805.358954027,449620.603490632
모루야,일식,서울특별시,강서구,서울특별시 강서구 마곡동 799-3 문영 퀸즈파크12차,"서울특별시 강서구 공항대로 194, 문영 퀸즈파크12차 1층 111호 (마곡동)",7631,157-210,37.559223376346600,126.82903791872600,184825.676320005,450763.336622561
브리즈커피,기타,서울특별시,구로구,서울특별시 구로구 구로동 685-216,"서울특별시 구로구 구일로4길 29, 1층 (구로동)",8324,152-868,37.4919205915891,126.87587417664500,188953.508733624,443287.8318629
불타는 포차,호프/통닭,서울특별시,구로구,서울특별시 구로구 신도림동 292-45,"서울특별시 구로구 신도림로11다길 6, 1층 (신도림동)",8205,152-886,37.5093508680415,126.87820631191900,189162.246074747,445221.889843094
힘내 커피,기타,서울특별시,영등포구,서울특별시 영등포구 당산동1가 77-3,"서울특별시 영등포구 영신로37길 13-1, 1층 (당산동1가)",7267,150-800,37.52144147804120,126.899624328724,191057.124646878,446561.399943347
김밥오리진(Origin),분식,서울특별시,영등포구,서울특별시 영등포구 여의도동 44-5,"서울특별시 영등포구 여의대방로69길 19, 1층 110호 (여의도동)",7333,150-890,37.520804176077300,126.93045126525500,193781.852246267,446488.190917868
네오,김밥(도시락),서울특별시,관악구,서울특별시 관악구 신림동 706-25,"서울특별시 관악구 난곡로35길 7, 1층 (신림동)",8858,151-881,37.472908812152500,126.91836652735600,192709.023153285,441173.863995177
두레유,한식,서울특별시,종로구,서울특별시 종로구 평창동 193-1 전진빌딩,"서울특별시 종로구 평창문화로 84, 전진빌딩 2층 (평창동)",3011,110-847,37.60670045820900,126.97059105426500,197332.885550763,456018.751573648
스타주점,정종/대포집/소주방,서울특별시,관악구,서울특별시 관악구 봉천동 871-73,"서울특별시 관악구 봉천로 459, 지1층 (봉천동)",8745,151-822,37.482762091512300,126.9511155016400,195606.1423178,442265.29751879
카츠오도 낙성대점,일식,서울특별시,관악구,서울특별시 관악구 봉천동 1644-6,"서울특별시 관악구 인헌3길 5, 1층 104호 (봉천동)",8795,151-814,37.4746406459186,126.9672536716420,197033.003298433,441363.391202842
돌쇠 솥뚜껑,기타,서울특별시,성북구,서울특별시 성북구 장위동 76-191,"서울특별시 성북구 장월로26길 7, 지층 및 1층 (장위동)",2766,136-827,37.61756057246160,127.05076471703400,204410.688317294,457224.722187291
구룡관 혜화본점,중국식,서울특별시,종로구,서울특별시 종로구 명륜2가 21-14,"서울특별시 종로구 창경궁로 258-5, 지상 1층 (명륜2가)",3077,110-522,37.584228403746400,127.00048578782100,199972.250210331,453524.442402278
두번먹는 명인김치찜,한식,서울특별시,서초구,서울특별시 서초구 방배동 864-37 지하1층,"서울특별시 서초구 도구로 119-2, 지하1층 (방배동)",6569,137-838,37.48742123814680,126.98584182644400,198677.25337663,442781.291554296
삼호령 김치찜,한식,서울특별시,서초구,서울특별시 서초구 방배동 864-37 지하1층,"서울특별시 서초구 도구로 119-2, 지하1층 (방배동)",6569,137-838,37.48742123814680,126.98584182644400,198677.25337663,442781.291554296
마당재 한우국밥,한식,서울특별시,서초구,서울특별시 서초구 서초동 1357-70 대원빌딩,"서울특별시 서초구 강남대로43길 12, 1층 (서초동)",6729,137-862,37.48788043771900,127.03157933350000,202721.790229726,442832.591039646
호앙비엣 강남역점,"외국음식전문점(인도,태국등)",서울특별시,강남구,서울특별시 강남구 역삼동 617-4,"서울특별시 강남구 강남대로102길 31, 지상1층 1호,2호 (역삼동)",6124,135-907,37.50329742345800,127.02775097809900,202382.762147792,444543.388482475
히노노리 갤러리아백화점점,일식,서울특별시,강남구,서울특별시 강남구 압구정동 494 갤러리아백화점,"서울특별시 강남구 압구정로 343, 갤러리아백화점 지하1층 (압구정동)",6008,135-902,37.528760781941400,127.04007145995900,203470.848439305,447369.579851952
밀회관 역삼점,경양식,서울특별시,강남구,서울특별시 강남구 역삼동 677 서울철강빌딩,"서울특별시 강남구 테헤란로33길 18, 서울철강빌딩 지상1층 (역삼동)",6142,135-915,37.50320707694710,127.03934033977800,203407.393009297,444533.718771768
파스타 파는 남자,경양식,서울특별시,강남구,서울특별시 강남구 역삼동 661,"서울특별시 강남구 언주로103길 27, 지하1층 (역삼동)",6137,135-913,37.506370191997900,127.03790608237700,203280.450353754,444884.695313788
신명떡볶이 암사본점,분식,서울특별시,강동구,서울특별시 강동구 암사동 455-43 햇살담은채,"서울특별시 강동구 고덕로24길 32, 1층 101호 (암사동, 햇살담은채)",5254,134-858,37.55346209397900,127.13542734914000,211894.569145406,450118.623756386
오육 석관점,한식,서울특별시,성북구,서울특별시 성북구 석관동 65-36,"서울특별시 성북구 한천로71길 13-5, 1층 (석관동)",2784,136-816,37.60925713125510,127.0633564133630,205522.847804041,456303.894848831
매우당 천호점,한식,서울특별시,강동구,서울특별시 강동구 성내동 226-28,"서울특별시 강동구 풍성로37가길 30, 1층 (성내동)",5388,134-842,37.53314905440650,127.12794043629800,211236.134779636,447863.441969186
파스타에 반하다 & 볶음밥도사 은평구점,경양식,서울특별시,은평구,서울특별시 은평구 대조동 171-6 명진하이빌,"서울특별시 은평구 연서로18길 34, 1층 101호 (대조동, 명진하이빌)",3393,122-841,37.61206937791510,126.92121772973500,192974.27382546,456617.128146224
착한돈까스 훔친고기,한식,서울특별시,강동구,서울특별시 강동구 고덕동 210-1 고덕센트럴푸르지오,"서울특별시 강동구 고덕로 399, 메가스퀘어동 B126호 (고덕동, 고덕센트럴푸르지오)",5222,134-801,37.55791664153780,127.17008935141400,214956.131343654,450617.923583608
순수순 부대찌개&닭갈비,한식,서울특별시,영등포구,서울특별시 영등포구 여의도동 12-1 삼도오피스텔,"서울특별시 영등포구 은행로 58, 지하층 105호, 106호 (여의도동, 삼도오피스텔)",7241,150-869,37.530162787442400,126.92486943110500,193289.310384283,447527.152620774
마장동고기집 답십리역점,한식,서울특별시,동대문구,서울특별시 동대문구 답십리동 70-19,"서울특별시 동대문구 전농로 96-1, 1층 (답십리동)",2538,130-883,37.573793460765200,127.05774994908900,205030.262510537,452367.931822965
돈카츠식탁,경양식,서울특별시,양천구,서울특별시 양천구 목동 750-4 목동프라자,"서울특별시 양천구 목동중앙본로 36, 목동프라자 1층 103호 (목동)",7975,158-816,37.53980229981080,126.86936376119600,188385.252127565,448602.31391206
서울브루어리 성수 탭룸,기타,서울특별시,성동구,서울특별시 성동구 성수동2가 310-53,"서울특별시 성동구 연무장길 28-12, 2층 (성수동2가)",4781,133-827,37.54326291923000,127.05233460794200,204553.795077999,448979.490026691
육회바른연어 위례점,한식,서울특별시,송파구,서울특별시 송파구 장지동 897 위례중앙푸르지오1단지,"서울특별시 송파구 위례광장로 120, 상가동 111호 (장지동, 위례중앙푸르지오1단지)",5852,138-926,37.474998699347900,127.14159540712600,212452.558599859,441411.906445707
영앤리치푸드,한식,서울특별시,성북구,서울특별시 성북구 돈암동 609-1 한신한진아파트,"서울특별시 성북구 성북로4길 52, 제411동 제1층 3101호 (돈암동, 한신한진아파트)",2831,136-753,37.59501461880940,127.01033228997900,200841.726990037,454721.505180141
서촌 기와집,분식,서울특별시,종로구,서울특별시 종로구 필운동 204-2번지,서울특별시 종로구 자하문로1길 35 (필운동),3041,110044,37.576712902306500,126.97025684645100,197302.296489158,452690.835506396
육주간,한식,서울특별시,중구,서울특별시 중구 회현동3가 11-3 세대빌딩,"서울특별시 중구 퇴계로 108, 세대빌딩 1층 (회현동3가)",4631,100-053,37.56068810994440,126.98373848885200,198492.730625257,450912.159237941
태화당.,한식,서울특별시,광진구,서울특별시 광진구 구의동 248-12,"서울특별시 광진구 아차산로51길 98, 2층 (구의동)",5040,143-826,37.54146782019070,127.0856112665750,207494.428053056,448782.409092603
로컬팟,기타,서울특별시,마포구,서울특별시 마포구 서교동 453-13,"서울특별시 마포구 월드컵북로7길 38, 1층 (서교동)",3999,121-841,37.55796036447480,126.91599063107500,192507.390746607,450612.687611164
드렁킨타이 목동점,"외국음식전문점(인도,태국등)",서울특별시,양천구,서울특별시 양천구 목동 908-29 하이베라스 110호,"서울특별시 양천구 목동서로 37, 하이베라스 1층 110호 (목동)",7984,158-878,37.53768146519100,126.88168244349400,189473.530827695,448365.502006523
회가대표 초밥24,일식,서울특별시,금천구,서울특별시 금천구 독산동 1156 금천롯데캐슬골드파크4차,"서울특별시 금천구 시흥대로 315, 금천롯데캐슬골드파크4차 104호 (독산동)",8608,153-010,37.461286232280400,126.89679688929700,190799.832998673,439885.941303087
무의도바다손칼국수,한식,서울특별시,영등포구,서울특별시 영등포구 대림동 856-8,"서울특별시 영등포구 디지털로 407, 1층 (대림동)",7429,150-818,37.493213100457500,126.90365974943000,191410.5801213,443428.370177829
치카라 돈이찌,일식,서울특별시,강남구,서울특별시 강남구 압구정동 494 갤러리아백화점,"서울특별시 강남구 압구정로 343, 갤러리아백화점 지하1층 (압구정동)",6008,135-902,37.528760781941400,127.04007145995900,203470.848439305,447369.579851952
알리바바 쏙쏙김밥 종로타워점,분식,서울특별시,종로구,서울특별시 종로구 종로2가 6번지 종로타워,"서울특별시 종로구 종로 51, 종로타워 지하2층 B201호 (종로2가)",3161,110122,37.57065423303190,126.9838725441820,198504.772723631,452018.161511911
청춘일번지,호프/통닭,서울특별시,종로구,서울특별시 종로구 낙원동 198 금강빌딩,"서울특별시 종로구 수표로 108, 금강빌딩 지하1층 (낙원동)",3139,110-320,37.57110303711980,126.98952594826400,199004.15226816,452067.89327956
밀카페 우프,기타,서울특별시,마포구,서울특별시 마포구 창전동 444 서강쌍용예가,"서울특별시 마포구 독막로 147-7, 서강쌍용예가 104호 (창전동)",4069,121-892,37.54856445292140,126.92944212659100,193694.991688366,449568.977982811
꾸브라꼬 숯불두마리치킨 미아점,호프/통닭,서울특별시,강북구,서울특별시 강북구 미아동 323-48 다원힐스빌,"서울특별시 강북구 도봉로29길 25-2, 1층 101호 (미아동, 다원힐스빌)",1177,142-815,37.62050975808600,127.02676425945500,202291.931915579,457551.158252876
라사천마라탕 대림점,중국식,서울특별시,영등포구,서울특별시 영등포구 대림동 864-32 대성빌딩,"서울특별시 영등포구 디지털로 398, 대성빌딩 1층 104호 (대림동)",7438,150-818,37.49228460397060,126.90316528546000,191366.751314427,443325.375451909
주식회사 해담채여의도,한식,서울특별시,영등포구,서울특별시 영등포구 여의도동 16-2 중소기업중앙회,"서울특별시 영등포구 은행로 30, 중소기업중앙회 신관1층 110호 (여의도동)",7242,150-740,37.528388867428000,126.92272432058000,193099.563598351,447330.445753577
남영동 양문 성수역점,기타,서울특별시,성동구,서울특별시 성동구 성수동2가 325-2 서울숲한라시그마벨리,"서울특별시 성동구 성수이로 51, 1층 103A,103B호 (성수동2가)",4781,133-827,37.540464257260200,127.05510013246900,204798.346778805,448669.043360044
제육의 법칙,경양식,서울특별시,강남구,서울특별시 강남구 논현동 123-1,"서울특별시 강남구 학동로6길 3, 지상1층 (논현동)",6111,135-822,37.51163406172510,127.02375770834700,202029.487578948,445468.455827297
브로콜리,분식,서울특별시,성북구,서울특별시 성북구 장위동 214-30 1층,"서울특별시 성북구 돌곶이로39길 9, 1층 (장위동)",2754,136-833,37.6177469807522,127.04708174331600,204085.559692594,457245.242612465
해월,일식,서울특별시,영등포구,서울특별시 영등포구 문래동2가 14-12,"서울특별시 영등포구 도림로 439-1, 1층 (문래동2가)",7290,150-092,37.514528800529500,126.89403094327900,190561.856890846,445794.808189556
고기주방,식육(숯불구이),서울특별시,영등포구,서울특별시 영등포구 당산동6가 311-1 유니언타운,"서울특별시 영등포구 당산로 241, 유니언타운 1층 101호 (당산동6가)",7222,150-809,37.535368868484400,126.90244675741000,191308.21419306,448106.7377888
만석계,한식,서울특별시,송파구,서울특별시 송파구 문정동 620 송파 푸르지오시티,"서울특별시 송파구 새말로 62, 송파 푸르지오시티 상가 1층 142호 (문정동)",5841,138-888,37.48095646914000,127.12127521999100,210654.50616628,442070.575741668
카페 아이엠티 시청2청사점,기타,서울특별시,중구,서울특별시 중구 서소문동 85-3 1층 101-2호,"서울특별시 중구 서소문로 124, 1층 101-2호 (서소문동)",4514,100-814,37.563284761745400,126.9752148547750,197739.803508714,451200.496953953
시올돈 왕십리점,한식,서울특별시,성동구,서울특별시 성동구 행당동 268 왕십리가축병원,"서울특별시 성동구 왕십리로 295, 1층 (행당동)",4744,133-867,37.56062642220240,127.03575076115700,203087.666475672,450905.750645406
노모어피자 왕십리점,한식,서울특별시,성동구,서울특별시 성동구 상왕십리동 811 텐즈힐,"서울특별시 성동구 마장로 137, 221동 1층 1109호 (상왕십리동, 텐즈힐)",4700,133-010,37.56956648780480,127.02473075246800,202113.869605464,451897.581865192
길포차,한식,서울특별시,마포구,서울특별시 마포구 공덕동 115-25,"서울특별시 마포구 만리재로 80-4, 지1층 (공덕동)",4185,121-801,37.54791372561610,126.95880461550300,196289.357770092,449495.198792649
오르조르브텀 여의도(orzo le beau temps),경양식,서울특별시,영등포구,서울특별시 영등포구 여의도동 43 미원빌딩,"서울특별시 영등포구 국제금융로 70, 미원빌딩 1층 109호 (여의도동)",7333,150-733,37.52162845077960,126.93064390833800,193798.948251805,446579.652565611
야키토리잔잔 마곡점,정종/대포집/소주방,서울특별시,강서구,서울특별시 강서구 마곡동 795-6 뉴골든타워,"서울특별시 강서구 마곡중앙6로 89, 뉴골든타워 1층 104-1,105-1,105-2호 (마곡동)",7803,157-210,37.56038826254320,126.8372828392990,185554.299381324,450891.312361248
홍미집 신림직영점,한식,서울특별시,관악구,서울특별시 관악구 신림동 1641-10,"서울특별시 관악구 신림로 322-1, 1층 (신림동)",8777,151-930,37.48336215533230,126.93010443022900,193748.074171906,442333.077344404
일미락본점,분식,서울특별시,양천구,서울특별시 양천구 목동 406-74 1층,"서울특별시 양천구 목동동로 226-15, 1층 (목동)",8000,158-806,37.52574178694360,126.87298036378400,188702.723254513,447041.496007197
족발 참 잘하는 집,한식,서울특별시,도봉구,서울특별시 도봉구 창동 10 105호,"서울특별시 도봉구 노해로69길 15-15, 1층 105호 (창동)",1414,132-898,37.652995863091000,127.04993128469500,204335.057042232,461157.210858518
지코바 불광점,한식,서울특별시,은평구,서울특별시 은평구 불광동 168-1 1층,"서울특별시 은평구 불광로 197, 1층 (불광동)",3346,122-852,37.62397413599060,126.92972631623100,193726.434038633,457937.684519889
무탈(MUTAL),"외국음식전문점(인도,태국등)",서울특별시,강남구,서울특별시 강남구 신사동 663-3,"서울특별시 강남구 압구정로50길 27, 지상2층 201호 (신사동)",6018,135-897,37.526698589586800,127.03788208802300,203277.439911786,447140.64809885
수성,한식,서울특별시,강서구,서울특별시 강서구 마곡동 776-2 외 1필지 마곡센트럴대방디엠시티오피스텔 (지상 2층) 205-1호,"서울특별시 강서구 양천로 344, 2층 205-1호 (마곡동, 가양 1동 마곡센트럴대방디엠시티오피스텔)",7791,157-210,37.56849678110620,126.84035497462900,185827.239418328,451790.699502971
정글,한식,서울특별시,종로구,서울특별시 종로구 익선동 123-2,"서울특별시 종로구 삼일대로30길 46, 2층 (익선동)",3133,110-340,37.57442031566530,126.99020216550100,199063.924702653,452436.026382605
207다이닝,경양식,서울특별시,성동구,서울특별시 성동구 성수동1가 656-659,"서울특별시 성동구 성수일로1길 12-12, 지1층 (성수동1가)",4779,133-823,37.542314838075800,127.04755326793000,204131.349876147,448874.05497367
마초갈비,한식,서울특별시,영등포구,서울특별시 영등포구 여의도동 14-21,"서울특별시 영등포구 국회대로 780, 1층 112호 (여의도동, 엘지여의도에클라트)",7237,150-871,37.53012261946690,126.91917456212300,192785.997964211,447523.1165117
태양,한식,서울특별시,강동구,서울특별시 강동구 암사동 501-20,"서울특별시 강동구 올림픽로 778-7, 1층 104호 (암사동)",5264,134-859,37.55072731659700,127.1282474198910,211260.620620263,449814.244258699
소담옥,한식,서울특별시,마포구,서울특별시 마포구 신공덕동 14-15,"서울특별시 마포구 만리재옛길 12-1, 1층 (신공덕동)",4209,121-851,37.545433453912900,126.9548895454900,195943.294277932,449220.109768241
TARTAN HOUSE 타탄하우스,기타,서울특별시,성동구,서울특별시 성동구 금호동3가 412,"서울특별시 성동구 독서당로 295-1, 3층 (금호동3가)",4730,133-805,37.54858918113830,127.02198078783600,201871.482216012,449569.540265379
82키친푸드2,한식,서울특별시,성동구,서울특별시 성동구 홍익동 278-19,"서울특별시 성동구 무학로6길 33, 2층 201호 (홍익동)",4708,133-880,37.56529745709980,127.03380995725900,202916.027331497,451424.06305151
장수상회,한식,서울특별시,강남구,서울특별시 강남구 역삼동 643-14,"서울특별시 강남구 테헤란로25길 15-10, 지하1층 (역삼동)",6131,135-910,37.501990958608500,127.03450485580500,202979.930975018,444398.595688544
스타벅스종로R,기타,서울특별시,종로구,서울특별시 종로구 종로2가 6 종로타워,"서울특별시 종로구 종로 51, 종로타워 1~2층 101,2층전체호 (종로2가)",3161,110-122,37.57065423303190,126.9838725441820,198504.772723631,452018.161511911
국수미가 가락점,한식,서울특별시,송파구,서울특별시 송파구 가락동 70 영남빌딩,"서울특별시 송파구 중대로9길 53, 영남빌딩 1층 105호 (가락동)",5707,138-802,37.497826402233300,127.1194879294230,210494.082619505,443942.516227487
동궈샤오휘양 샤브,중국식,서울특별시,영등포구,서울특별시 영등포구 대림동 713-7 지상2층,"서울특별시 영등포구 도림로39길 21 (대림동, 지상2층)",7415,150-814,37.49480945365980,126.89792684271800,190903.853517666,443606.064176681
화양회관,한식,서울특별시,광진구,서울특별시 광진구 화양동 41-8,"서울특별시 광진구 동일로 146, 1층 (화양동)",5014,143-917,37.54553796084710,127.06609815061400,205769.819136098,449232.720673673
피드백(FEEDBACK),기타,서울특별시,송파구,서울특별시 송파구 석촌동 173-8,"서울특별시 송파구 백제고분로 349, 가동 1층 6,7호 (석촌동)",5615,138-844,37.50477063032460,127.10493605993900,209206.590522133,444711.630583279
계동치킨,한식,서울특별시,마포구,서울특별시 마포구 노고산동 54-7,"서울특별시 마포구 신촌로12가길 34 (노고산동, 1층 일부)",4057,121-807,37.55549437524600,126.9343542112430,194129.555185656,450337.716045667
멜팅소울,일식,서울특별시,중구,서울특별시 중구 소공동 1 롯데백화점 본점,"서울특별시 중구 남대문로 81, 롯데백화점 본점 지하1층 (소공동)",4533,100-070,37.565013296436500,126.98109903810700,198259.65357739,451392.198218657
주식회사 호랑이 도삭면 광화문,한식,서울특별시,종로구,서울특별시 종로구 청진동 179-1 지상1층,"서울특별시 종로구 종로3길 24-17 (청진동,지상1층)",3156,110-130,37.571947922807200,126.97974271914700,198140.011322724,452161.804408159
일미락본점,한식,서울특별시,양천구,서울특별시 양천구 목동 406-126 1층,"서울특별시 양천구 목동동로 226-16, 1층 (목동)",8000,158-806,37.52562181668500,126.8729592734550,188700.841100582,447028.184755201
둘둘치킨(신풍?대림),호프/통닭,서울특별시,영등포구,서울특별시 영등포구 대림동 700-1 기영빌딩,"서울특별시 영등포구 대림로 154, 기영빌딩 1층 110호 (대림동)",7422,150-814,37.494993892020000,126.9004184072790,191124.182011873,443626.294389029
펀비어킹,일식,서울특별시,관악구,서울특별시 관악구 신림동 1434-20 늘푸른빌딩,"서울특별시 관악구 신림동5길 48, 늘푸른빌딩 지하1층 (신림동)",8760,151-892,37.485295766308000,126.92756035405700,193523.257012005,442547.831578485
타키,한식,서울특별시,구로구,"서울특별시 구로구 신도림동 338 푸르지오2차(경인로244) 1층 106,107호","서울특별시 구로구 경인로67길 23, 106,107호 (신도림동,푸르지오2차(경인로244) 1층)",8208,152-887,37.51069227823930,126.88944991074300,190156.399992266,445369.517787461
이모네포차,한식,서울특별시,강동구,서울특별시 강동구 암사동 464-3,서울특별시 강동구 고덕로10길 53 (암사동),5251,134-857,37.552517551518700,127.129675601823,211386.535371617,450013.089760544
토담,한식,서울특별시,노원구,서울특별시 노원구 중계동 359-1 중계5단지주공아파트,"서울특별시 노원구 중계로 230, 주공5단지2상가 202호 (중계동, 중계5단지주공아파트)",1713,139-860,37.65304442190020,127.07594911532300,206630.714120071,461164.120761815
제주청량해장 가산점,한식,서울특별시,금천구,서울특별시 금천구 가산동 371-28 우림라이온스밸리,"서울특별시 금천구 가산디지털1로 168, 우림라이온스밸리 A동 지상2층 203 일부호 (가산동)",8507,153-776,37.480164365772700,126.88250301716000,189538.020935968,441982.427934953
참살이청국장,한식,서울특별시,서초구,서울특별시 서초구 서초동 1599-11 지하1층5호,"서울특별시 서초구 서초중앙로 63 (서초동,지하1층5호)",6651,137-876,37.48750833274400,127.0144661710760,201208.493843332,442790.939502082
사계절,한식,서울특별시,송파구,서울특별시 송파구 잠실동 176-2 잠실동 렉스빌2차,"서울특별시 송파구 백제고분로7길 3-10, 잠실동 렉스빌2차 지하1층 101-10호 (잠실동)",5556,138-861,37.511109876784200,127.07932510116200,206941.757489986,445412.933180995
먹골풍천민물장어,한식,서울특별시,중랑구,서울특별시 중랑구 묵동 181-8,서울특별시 중랑구 동일로 858 (묵동),2045,131-849,37.60721885304880,127.07875348585800,206882.379857079,456078.709603397
산시면가,한식,서울특별시,성북구,서울특별시 성북구 안암동5가 104-16,서울특별시 성북구 안암로 91 (안암동5가),2856,136-075,37.58439721241550,127.0306273611670,202634.210876953,453543.594400366
모모스,일식,서울특별시,강동구,서울특별시 강동구 성내동 12-38,"서울특별시 강동구 천호옛14길 23-4, 1층 (성내동)",5379,134-840,37.53647077499140,127.12700532881300,211152.999198771,448231.961539489
길투당구클럽,한식,서울특별시,강동구,서울특별시 강동구 성내동 12-3 성내프라자,"서울특별시 강동구 천호옛14길 37, 성내프라자 2층 (성내동)",5379,134-840,37.536268924435100,127.12766363755200,211211.205407847,448209.639267106
여탕매점,분식,서울특별시,강동구,서울특별시 강동구 성내동 428-2 파크프라자,"서울특별시 강동구 양재대로89길 16, 지1층 B101호 (성내동, 파크프라자)",5404,134-890,37.52712431968660,127.13474396450200,211838.35431041,447195.676766748
Null Pub(널펍),기타,서울특별시,구로구,서울특별시 구로구 가리봉동 136-95,"서울특별시 구로구 남부순환로105가길 20, 지하1층 (가리봉동)",8395,152-801,37.47991064298210,126.8928726009470,190455.056884776,441953.169448475
상아김밤 마포점,분식,서울특별시,마포구,서울특별시 마포구 공덕동 476 공덕파크자이,"서울특별시 마포구 백범로 152, 201동 1층 11호 (공덕동, 공덕파크자이)",4148,121-805,37.545072981479100,126.94797038060100,195331.885613245,449180.427006045
호디박스앤해피토스트,기타,서울특별시,구로구,서울특별시 구로구 구로동 222-3 제이앤케이디지털타워,"서울특별시 구로구 디지털로26길 111, 제이앤케이디지털타워 지하1층 B011호 (구로동)",8390,152-848,37.48261735091580,126.89702761439800,190822.851419439,442253.132895893
더쿠네 오리바베큐 금천점,한식,서울특별시,금천구,서울특별시 금천구 독산동 1032-4,"서울특별시 금천구 범안로 1238, 1층 2호 (독산동)",8616,153-830,37.46652378035460,126.89927065601400,191019.290181748,440466.93700543
소팔소곱창 독산점,한식,서울특별시,금천구,서울특별시 금천구 독산동 291-1 현대지식산업센터,"서울특별시 금천구 두산로 70, 현대지식산업센터 지하1층 T-L 132호 (독산동)",8584,153-813,37.469201265850000,126.89559936395800,190694.880295092,440764.426277932
해탄(신촌점),기타,서울특별시,서대문구,서울특별시 서대문구 창천동 13-42 (지상1층),"서울특별시 서대문구 연세로4길 30 (창천동,(지상1층))",3777,120-833,37.55772057160510,126.93850735254000,194496.646443395,450584.519684484
한접시,호프/통닭,서울특별시,마포구,서울특별시 마포구 합정동 410-20,"서울특별시 마포구 독막로 53 (합정동, 1층 우측)",4048,121-883,37.54829006342530,126.91907312813100,192778.7855568,449539.27321717
스택(STACK),기타,서울특별시,마포구,서울특별시 마포구 동교동 203-50 정암빌딩,"서울특별시 마포구 동교로25길 23, 정암빌딩 1층 일부호 (동교동)",3992,121-819,37.558193073143900,126.92115044188100,192963.263833606,450638.113960595
예당,한식,서울특별시,서초구,서울특별시 서초구 서초동 1541-1 사랑의교회 13층,"서울특별시 서초구 반포대로 121, 사랑의교회 13층 (서초동)",6655,137-872,37.49151950939130,127.00735065857900,200579.241047228,443236.01212579
대성정육식당,한식,서울특별시,송파구,서울특별시 송파구 잠실동 210-53,서울특별시 송파구 석촌호수로12길 1-6 (잠실동),5564,138-862,37.50905078527540,127.0861320675710,207543.71266559,445184.948657942
엘리팝 충무로점,경양식,서울특별시,중구,서울특별시 중구 충무로4가 132-3,서울특별시 중구 퇴계로 209 (충무로4가),4557,100-862,37.56185897832090,126.99508530565800,199495.153221359,451041.976434801
김명자 굴국밥,한식,서울특별시,마포구,서울특별시 마포구 도화동 173 삼창프라자빌딩,"서울특별시 마포구 마포대로 63-8, 삼창프라자빌딩 지1층 61,62,63,64호 (도화동)",4157,121-812,37.542414741660400,126.94789199865100,195324.793653981,448885.430093289
라운지목화 합정관,중국식,서울특별시,마포구,서울특별시 마포구 서교동 399-9,"서울특별시 마포구 양화로6길 57-12, 1층 (서교동)",4047,121-840,37.54927358105870,126.91783386522600,192669.383194723,449648.516083399
이온정,일식,서울특별시,송파구,서울특별시 송파구 문정동 634 가든파이브라이프,"서울특별시 송파구 충민로 66, 가든파이브라이프 지하1층 T-B1042호 (문정동)",5838,138-960,37.47784123159180,127.12502361828500,210986.460698452,441725.293491662
원조부안집 덕성여대점,한식,서울특별시,강북구,서울특별시 강북구 우이동 71-36 1층 102호,"서울특별시 강북구 삼양로 533-28, 1층 102호 (우이동)",1009,142-892,37.65178235090230,127.01218565419800,201004.619815013,461021.463233256
김승현스시,일식,서울특별시,관악구,서울특별시 관악구 봉천동 1685-20,"서울특별시 관악구 남부순환로 1913, 1층 (봉천동)",8742,151-849,37.47815994387570,126.96203247181800,196571.376338921,441754.121622412
남현동김밥,분식,서울특별시,관악구,서울특별시 관악구 남현동 1081-14,"서울특별시 관악구 남현길 48, 1층층 (남현동)",8805,151-802,37.47485732503230,126.97631211688300,197834.181511634,441387.190238411
전주집고모네,한식,서울특별시,관악구,서울특별시 관악구 신림동 1640-38 양지순대촌,"서울특별시 관악구 신림로59길 12, 양지순대촌 2층 201,202호 (신림동)",8776,151-930,37.4835187205828,126.9290483206380,193654.690899311,442350.522803581
프롬하츠커피 신촌점,기타,서울특별시,서대문구,서울특별시 서대문구 창천동 2-14 지하1층~지상3층,"서울특별시 서대문구 연세로12길 19, 지하1~지상3층 (창천동)",3776,120-833,37.559264350068500,126.93820425660700,194469.982990875,450755.860259093
가마치 통닭(독립문역점),기타,서울특별시,서대문구,서울특별시 서대문구 영천동 278,"서울특별시 서대문구 통일로 203-1, 1층 (영천동)",3734,120-070,37.57150369807300,126.96086746111100,196472.739619678,452113.046976794
마우디 브런치 바 (Maudie Brunch Bar),경양식,서울특별시,서대문구,서울특별시 서대문구 연희동 194-30 브라운스톤연희,"서울특별시 서대문구 연희로 82, 브라운스톤연희 a 102호 (연희동)",3726,120-830,37.56547209566490,126.93019180678400,193762.64108662,451445.274814853
본죽&비빔밥사당남현점,한식,서울특별시,관악구,서울특별시 관악구 남현동 1058-6,"서울특별시 관악구 남현길 7, 1층 103호 (남현동)",8806,151-800,37.476257032702400,126.97771756861600,197958.524057933,441542.490987188
어바웃 포레스트,기타,서울특별시,강남구,서울특별시 강남구 삼성동 113-24,"서울특별시 강남구 선릉로108길 31, 지상1층 101호 (삼성동)",6153,135-874,37.510503867911600,127.04667175040500,204055.176237698,445343.77301436
망원 술집,호프/통닭,서울특별시,마포구,서울특별시 마포구 망원동 57-419,"서울특별시 마포구 월드컵로 99-1, 1층 우측호 (망원동)",4012,121-820,37.55767873444920,126.90852545294700,191847.837708879,450582.054620428
삼산회관,일식,서울특별시,양천구,서울특별시 양천구 목동 609-22 정목빌딩,"서울특별시 양천구 목동중앙북로7가길 10, 1층 101호 (목동, 정목빌딩)",7946,158-811,37.54891644277010,126.86693443828000,188172.017847017,449614.068537704
부대냉삼 이백집,한식,서울특별시,강서구,"서울특별시 강서구 마곡동 799-4 마곡지웰타워 114,115호","서울특별시 강서구 공항대로 200, 마곡지웰타워 1층 114,115호 (마곡동)",7631,157-210,37.55917744189740,126.8294909278720,184865.68815993,450758.165943878
화덕돌곱창 잠실직영점,한식,서울특별시,송파구,서울특별시 송파구 잠실동 191-9 건영빌딩,"서울특별시 송파구 백제고분로7길 24-14, 건영빌딩 1층 (잠실동)",5560,138-862,37.51021855700080,127.08162021907500,207144.734956722,445314.190415467
스시J,일식,서울특별시,송파구,서울특별시 송파구 장지동 895 송파와이즈더샵,"서울특별시 송파구 위례광장로 270, 1층 Y-129호 (장지동, 송파와이즈더샵)",5852,138-926,37.47656560638850,127.1433714620110,212609.377447603,441586.029967716
비에이치씨 한강광나루1호점,한식,서울특별시,강동구,서울특별시 강동구 천호동 483-8,"서울특별시 강동구 한강남자전거길 3646, 2층 (천호동)",,134-874,37.5456403688896,127.11987785105800,210521.84184835,449248.744901725
한우짝갈비,식육(숯불구이),서울특별시,강동구,서울특별시 강동구 성내동 438-11,"서울특별시 강동구 양재대로85길 30, 1층 102호 (성내동)",5405,134-846,37.52499513199580,127.13308649478200,211692.194590204,446959.181297857
솔티 상일점,기타,서울특별시,강동구,서울특별시 강동구 고덕동 210-1 고덕센트럴푸르지오,"서울특별시 강동구 고덕로 399, 메가스퀘어동 1층 120호 (고덕동, 고덕센트럴푸르지오)",5222,134-801,37.55791664153780,127.17008935141400,214956.131343654,450617.923583608
수화커피호프,기타,서울특별시,강동구,서울특별시 강동구 성내동 407-4,"서울특별시 강동구 천호대로170길 75, 지1층 (성내동)",5389,134-888,37.53233748831960,127.13211628005800,211605.30413324,447773.884825222
알촌 마곡점,한식,서울특별시,강서구,서울특별시 강서구 내발산동 750-10 웨스트엔드중정 106호,"서울특별시 강서구 수명로 68-35, 웨스트엔드중정 1층 106호 (내발산동)",7635,157-937,37.553194642490700,126.82676004887200,184623.198956871,450094.659934382
노북경,중국식,서울특별시,구로구,서울특별시 구로구 가리봉동 89-158,"서울특별시 구로구 디지털로27길 123, 1층 (가리봉동)",8385,152-800,37.48491000758000,126.88726254601500,189959.580578261,442508.556830638
우드사이드커피,기타,서울특별시,은평구,서울특별시 은평구 신사동 339-13,"서울특별시 은평구 증산로15길 8, 1층 (신사동)",3448,122-891,37.58916956572690,126.91214844707800,192171.215009997,454076.491140097
냉철한삼겹 화곡동점,한식,서울특별시,강서구,서울특별시 강서구 화곡동 929-4 1층,"서울특별시 강서구 강서로5나길 115, 1층 (화곡동)",7780,157-910,37.52832704067420,126.8417754010870,185945.171101719,447332.601844375
오늘,정종/대포집/소주방,서울특별시,구로구,서울특별시 구로구 구로동 650-4 SK허브수,"서울특별시 구로구 구일로10길 27, SK허브수 A동 1층 123,124호 (구로동)",8323,152-720,37.49607734340780,126.87271734198700,188674.995072188,443749.503020388
편장군족발,한식,서울특별시,구로구,서울특별시 구로구 신도림동 692 디큐브시티,"서울특별시 구로구 경인로 662, 지하2층 (신도림동, 디큐브시티)",8209,152-706,37.508782398435100,126.88889446682800,190107.045415333,445157.626366229
제이제이,한식,서울특별시,성북구,서울특별시 성북구 보문동7가 70,"서울특별시 성북구 보문로13가길 7, 지1층 (보문동7가)",2873,136-087,37.58061666777140,127.02129569933600,201810.174347432,453123.821241444
스시흥,일식,서울특별시,금천구,서울특별시 금천구 시흥동 985-8 신라상가,"서울특별시 금천구 시흥대로 149, 신라상가 2층 203호 (시흥동)",8638,153-863,37.447591659022100,126.90293504384200,191341.238749155,438365.613175801
객주현 가산디지털단지역점,한식,서울특별시,금천구,서울특별시 금천구 가산동 43-1,"서울특별시 금천구 벚꽃로38길 5, 3층 301호 (가산동)",8509,153-800,37.482141477990000,126.88338326388000,189616.142056546,442201.740263751
소울버튼 스테이지(Soulbutton stage),라이브카페,서울특별시,마포구,서울특별시 마포구 서교동 361-6,"서울특별시 마포구 와우산로18길 21, 지1층 (서교동)",4067,121-837,37.5513539248403,126.92385590003900,193201.659573033,449878.932065817
파라다이스 온다,한식,서울특별시,관악구,서울특별시 관악구 봉천동 1673-7,"서울특별시 관악구 행운1길 33, 1층 (봉천동)",8739,151-849,37.48042011258680,126.95727040435800,196150.332139555,442005.12738749
사부링,한식,서울특별시,관악구,서울특별시 관악구 신림동 1433-102,"서울특별시 관악구 남부순환로 1591, 2층 (신림동)",8759,151-892,37.484427950879,126.92737118894800,193506.453613619,442451.538877664
씨에씨에 마라탕,한식,서울특별시,관악구,서울특별시 관악구 봉천동 1717-3 관악푸르지오,"서울특별시 관악구 청림6길 3, 관악푸르지오 제상가동 제지1층 제비101(13)호 (봉천동)",8734,151-050,37.48779076963820,126.95991471016400,196384.544308046,442822.980265735
정담가옥,한식,서울특별시,강남구,서울특별시 강남구 논현동 10-7,"서울특별시 강남구 논현로149길 31, 1동 지상1층 101-1호 (논현동)",6040,135-812,37.51792868497540,127.02596793627800,202224.687390502,446167.05438459
솔솥,한식,서울특별시,서초구,서울특별시 서초구 서초동 1570-4,"서울특별시 서초구 반포대로26길 63, 요단빌딩 1층 (서초동)",6645,137-874,37.491666770772700,127.01250031466400,201034.596619588,443252.398599809
밀팅's 샌드위치,경양식,서울특별시,서초구,서울특별시 서초구 반포동 51-12 지하1층 11호,"서울특별시 서초구 서초중앙로 215, 지하1층 11호 (반포동)",6593,137-802,37.50102001576840,127.01167259555500,200961.285921939,444290.367052389
류의 집,일식,서울특별시,서초구,서울특별시 서초구 양재동 8-31 대경빌딩,"서울특별시 서초구 바우뫼로41길 77, 1층 101호 (양재동)",6742,137-887,37.48408846594530,127.03977471588700,203446.675140157,442412.045813754
낙성대 호프,한식,서울특별시,관악구,서울특별시 관악구 봉천동 1628-29,"서울특별시 관악구 낙성대로 15, 1층 (봉천동)",8792,151-818,37.47731961233450,126.95939729032000,196338.278279396,441660.965249239
이수간짜장,기타,서울특별시,동작구,서울특별시 동작구 사당동 141-175,"서울특별시 동작구 사당로29다길 2, 2층 (사당동)",7007,156-816,37.487198387699400,126.97960234110900,198125.492060002,442756.666691433
더 난곡 카페,한식,서울특별시,관악구,서울특별시 관악구 신림동 646-131,"서울특별시 관악구 난곡로24가길 53, 1층 (신림동)",8856,151-883,37.469637135060200,126.92359286618700,193170.97853227,440810.39899547
수미식당,중국식,서울특별시,영등포구,서울특별시 영등포구 대림동 706-17 대림빌딩,"서울특별시 영등포구 도림로 140, 대림빌딩 지하1층 B101호 (대림동)",7417,150-814,37.49335091542680,126.89766178048400,190880.239096486,443444.22840271
사케바신콘,일식,서울특별시,마포구,서울특별시 마포구 동교동 147-48,"서울특별시 마포구 양화로23길 10-10, 1층 일부호 (동교동)",3985,121-816,37.559503706332900,126.92576502852400,193371.061225046,450783.227713331
야키도리 수다,일식,서울특별시,강남구,서울특별시 강남구 삼성동 153-29,"서울특별시 강남구 테헤란로87길 57, 지하1층 (삼성동)",6166,135-878,37.51148674776330,127.0572184169760,204987.462329279,445453.355251637
압집,경양식,서울특별시,강남구,서울특별시 강남구 신사동 657-30,"서울특별시 강남구 도산대로51길 42, 지상2층 (신사동)",6018,135-897,37.526074331960300,127.03835422157100,203319.196326473,447071.387250871
카페마마스 키친 역삼센터필드점,기타,서울특별시,강남구,서울특별시 강남구 역삼동 676 센터필드,"서울특별시 강남구 테헤란로 231, 센터필드 더샵스앤센터필드 지하2층 WB54호 (역삼동)",6142,135-915,37.50340768740530,127.04150838689500,203599.062771687,444556.062267296
푸에르코 숭례문점,한식,서울특별시,중구,서울특별시 중구 남대문로5가 831,"서울특별시 중구 세종대로 14, 2층 201호 (남대문로5가)",4527,100-095,37.55808017362180,126.97438768840600,197666.569166046,450622.931217442
유한(YOUHAN),"외국음식전문점(인도,태국등)",서울특별시,용산구,서울특별시 용산구 한남동 684-94,"서울특별시 용산구 대사관로5길 10-5, 1층 (한남동)",4400,140-891,37.53502883162530,127.00109524604100,200026.091937656,448064.456879232
보리일가,한식,서울특별시,성동구,서울특별시 성동구 도선동 343-11,"서울특별시 성동구 왕십리로30길 2-1, 1층 (도선동)",4707,133-883,37.564831381835000,127.03098515256400,202666.506877842,451372.255803611
아지트,기타,서울특별시,성동구,서울특별시 성동구 도선동 68 장성빌딩,"서울특별시 성동구 무학로2길 46, 장성빌딩 2층 (도선동)",4709,133-882,37.56265703049310,127.03459030425300,202985.06683232,451131.062597967
김치찜에진심,기타,서울특별시,광진구,서울특별시 광진구 화양동 500-3 1층,"서울특별시 광진구 능동로16길 35, 1층 (화양동)",5021,143-926,37.545255602638300,127.07503992865900,206559.949702901,449201.971981633
부오이카페,기타,서울특별시,광진구,서울특별시 광진구 자양동 57-68 1층,"서울특별시 광진구 뚝섬로24길 40, 1층 (자양동)",5083,143-844,37.53494548675010,127.06296093260400,205493.388021995,448057.0230773
더꼬치다(구의점),한식,서울특별시,광진구,서울특별시 광진구 구의동 211-3 1층,"서울특별시 광진구 아차산로65길 11, 1층 (구의동)",5035,143-822,37.54114091976380,127.09390880694900,208227.684165199,448746.824686171
남원골,한식,서울특별시,노원구,서울특별시 노원구 상계동 1321 건영아파트,"서울특별시 노원구 덕릉로115다길 40, 지상1층 103호, 104호 (상계동, 건영아파트)",1638,139-200,37.668772176946500,127.07813902090500,206822.49898149,462909.715938659
인생아구찜,한식,서울특별시,노원구,서울특별시 노원구 상계동 434-22 거목미술학원,"서울특별시 노원구 한글비석로47길 67, 거목미술학원 지상1층 좌측호 (상계동)",1685,139-820,37.66129420777450,127.06674521077100,205817.972062411,462079.055763534
의생명연구원 카페테리아,한식,서울특별시,종로구,서울특별시 종로구 연건동 28-21 의생명연구원 1층,"서울특별시 종로구 대학로 101, 의생명연구원 1층 (연건동)",3080,110-460,37.579361762519300,126.99880836006300,199824.095974723,452984.360451452
백만축산 정육식당,한식,서울특별시,송파구,서울특별시 송파구 가락동 191-6 중원빌딩,"서울특별시 송파구 오금로46길 28, 중원빌딩 1층 (가락동)",5783,138-812,37.49548794606730,127.13437226219500,211810.486043327,443684.769200157
스트릿 파르나스몰점,"외국음식전문점(인도,태국등)",서울특별시,강남구,서울특별시 강남구 삼성동 159-8 파르나스타워,"서울특별시 강남구 테헤란로 521, 파르나스타워 지하1층 F-9,10호 (삼성동)",6164,135-090,37.50924437506240,127.06091223704200,205314.159889285,445204.709309676
돈의 정석,한식,서울특별시,은평구,서울특별시 은평구 대조동 171-27 부성빌딩,"서울특별시 은평구 역말로9길 5, 부성빌딩 1층 (대조동)",3393,122-841,37.611649152171300,126.92161544291300,193009.345631343,456570.462942658
멘노아지,일식,서울특별시,강남구,서울특별시 강남구 역삼동 635-13,"서울특별시 강남구 강남대로94길 27, 지상1층 (역삼동)",6130,135-908,37.50007467602420,127.0294688897340,202534.753331227,444185.788336022
황실짜장,중국식,서울특별시,강동구,서울특별시 강동구 천호동 34-6,"서울특별시 강동구 상암로 183, 1층 105,106호 (천호동)",5307,134-861,37.54671296839650,127.14264100259900,212533.038823469,449370.568731204
시그니처커피2호점,기타,서울특별시,관악구,서울특별시 관악구 신림동 1478-37 흥원아파트,"서울특별시 관악구 남부순환로144길 71, 1층 2호 (신림동, 흥원아파트)",8771,151-894,37.47839181888280,126.9134878301730,192278.082074793,441782.728102649
아우라,한식,서울특별시,서초구,서울특별시 서초구 방배동 452-6 지하1층,"서울특별시 서초구 방배천로4길 1, 지하1층 (방배동)",6692,137-818,37.47852747215060,126.98287614327200,198414.811048893,441794.353073883
더텐더비,기타,서울특별시,도봉구,서울특별시 도봉구 방학동 716-1 ESA 아파트,"서울특별시 도봉구 도봉로150길 31, 115호 (방학동, ESA 아파트)",1332,132-854,37.66677413208820,127.0449009734760,203890.492709829,462686.077387621
마라펀치,호프/통닭,서울특별시,관악구,서울특별시 관악구 봉천동 634-15,"서울특별시 관악구 국회단지길 30, 2층 (봉천동)",8716,151-826,37.48763696692010,126.94009611962000,194631.989975755,442806.857579701
할리스 목동삼성쉐르빌점,기타,서울특별시,양천구,서울특별시 양천구 신정동 318-10 삼성 쉐르빌1,"서울특별시 양천구 목동동로 189, 1층 101,102,103호 (신정동, 삼성 쉐르빌1)",8011,158-884,37.52286207605880,126.87042632278600,188476.542548546,446722.227911855
굿가이즈,기타,서울특별시,동대문구,서울특별시 동대문구 휘경동 294-317,"서울특별시 동대문구 망우로18다길 37, 지하1층 (휘경동)",2498,130-878,37.58588296804930,127.06099643411400,205316.157695405,453709.763913582
더(the)스시,일식,서울특별시,중랑구,서울특별시 중랑구 망우동 0,"서울특별시 중랑구 양원역로14길 7, 102호 (망우동)",2057,131-230,37.60754453646720,127.10662196528900,209342.800101399,456117.261043026
삼겹살 역,한식,서울특별시,도봉구,서울특별시 도봉구 쌍문동 88-39 1층 코너점포,"서울특별시 도봉구 도봉로113길 12, 1층 (쌍문동)",1443,132-866,37.6483935957915,127.03356852271900,202891.481063704,460645.830108291
88노가리 강남,호프/통닭,서울특별시,강남구,서울특별시 강남구 역삼동 818-4,"서울특별시 강남구 강남대로96길 18, 지상2층 (역삼동)",6129,135-932,37.50006145913200,127.0284961410720,202448.748410546,444184.29583607
안준마라공방,중국식,서울특별시,강동구,서울특별시 강동구 암사동 513,"서울특별시 강동구 상암로4길 29, 1층 103호 (암사동)",5242,134-877,37.54939106330030,127.12629944238200,211088.704897744,449665.720438085
마린박스,일식,서울특별시,용산구,서울특별시 용산구 한강로2가 422 래미안용산 더 센트럴,"서울특별시 용산구 한강대로 95, 지하1층 B154호 (한강로2가, 래미안용산 더 센트럴)",4378,140-012,37.52930781945170,126.9669885876940,197011.737528847,447430.100250997
돈맛탱 천호점,한식,서울특별시,강동구,서울특별시 강동구 천호동 106-11,"서울특별시 강동구 천중로29길 28, 1층 101호 (천호동)",5317,134-862,37.54326747300820,127.13695115243900,212030.838399088,448987.457868823
마약낙곱새 성산점,한식,서울특별시,마포구,서울특별시 마포구 성산동 142-21,"서울특별시 마포구 월드컵북로 191, 1층 (성산동)",3940,121-849,37.568368195689300,126.90737670525100,191747.528688266,451768.432610804
잇웰,한식,서울특별시,서대문구,서울특별시 서대문구 연희동 194-24,"서울특별시 서대문구 연희로8길 24, 1층 (연희동)",3726,120-830,37.56532439650000,126.93129899129400,193860.435008837,451428.810784121
아크페브(akFeb),기타,서울특별시,용산구,서울특별시 용산구 용산동2가 24-17,"서울특별시 용산구 신흥로 62, 1층 (용산동2가)",4339,140-841,37.54404303564560,126.98741148215100,198816.951717906,449064.900499226
마이크로 브레이크 커피(micro break coffee),기타,서울특별시,서초구,서울특별시 서초구 양재동 355-13 대진빌딩 1층 101호,"서울특별시 서초구 강남대로6길 36-1, 대진빌딩 1층 101호 (양재동)",6788,137-898,37.4677655830721,127.0431888695060,203749.416490094,440600.748970729
니쿠니쿠,일식,서울특별시,강남구,서울특별시 강남구 역삼동 825-24,"서울특별시 강남구 강남대로84길 15, 지하1층 B109호 (역삼동)",6232,135-934,37.49722248975660,127.02978423428600,202562.731919583,443869.275108259
오르새피자,경양식,서울특별시,은평구,서울특별시 은평구 역촌동 2-55,"서울특별시 은평구 역말로 101, 1층 2호 (역촌동)",3398,122-895,37.60867408261430,126.92009916917400,192875.200530534,456240.411867385
단쇼우 이자카야,한식,서울특별시,동작구,서울특별시 동작구 사당동 1019-19,"서울특별시 동작구 동작대로9길 4, 1층 103호 (사당동)",7014,156-825,37.48089703731440,126.98133201433100,198278.302387539,442057.34216369
죽이야기 세계로병원점,한식,서울특별시,송파구,서울특별시 송파구 거여동 604,"서울특별시 송파구 위례서로 248, 1층 109호 (거여동)",5790,138-110,37.48680653358070,127.14228585240300,212511.655622483,442722.371081852
크로바커피호프,호프/통닭,서울특별시,도봉구,서울특별시 도봉구 방학동 658-53,"서울특별시 도봉구 도당로 131, 지하 1층 (방학동)",1352,132-847,37.667701211513200,127.040813665666,203529.8753124,462788.801361197
홀트(halt),기타,서울특별시,용산구,서울특별시 용산구 원효로2가 1-49,"서울특별시 용산구 백범로 324, 1층 (원효로2가)",4364,140-847,37.538390192718200,126.96485201053400,196823.291476878,448438.093933794
오복소바,일식,서울특별시,마포구,서울특별시 마포구 상암동 1605 누리꿈스퀘어,"서울특별시 마포구 월드컵북로 396, 누리꿈스퀘어 지1층 B1076-2호 (상암동)",3925,121-795,37.57961209755000,126.89041703184800,190250.875091908,453017.867202928
요거트 아이스크림의 정석,기타,서울특별시,은평구,서울특별시 은평구 갈현동 390-3 (일층코너),"서울특별시 은평구 통일로 931, 1층 (갈현동)",3328,122-808,37.62626039965910,126.9197696041570,192847.789128904,458192.120599854
땅땅치킨(시흥점),호프/통닭,서울특별시,금천구,서울특별시 금천구 시흥동 896-31,"서울특별시 금천구 독산로 41, 지상1층 일부호 (시흥동)",8630,153-858,37.451224409022200,126.90575910872300,191591.509170286,438768.49913036
JACKJACK,기타,서울특별시,용산구,서울특별시 용산구 이태원동 292-2,"서울특별시 용산구 회나무로6길 19, 1층 (이태원동)",4345,140-861,37.5382745378499,126.98888972263700,198947.492250997,448424.718494717
버텍스 봉천점,기타,서울특별시,관악구,서울특별시 관악구 봉천동 911-2,"서울특별시 관악구 봉천로35길 8, 1층 (봉천동)",8752,151-840,37.483578003107500,126.94521348628000,195084.249927282,442356.134974429
우리할매떡볶이 가재울점,기타,서울특별시,서대문구,서울특별시 서대문구 남가좌동 389 DMC에코자이 단지내상가 B2층 103동 114호,"서울특별시 서대문구 거북골로 84, 단지내상가 103동 B2층 114호 (남가좌동, DMC에코자이)",3687,120-120,37.57745437921410,126.91902330780800,192777.199694959,452775.826967308
딜리샵(Deli#),기타,서울특별시,강동구,서울특별시 강동구 암사동 489-78,"서울특별시 강동구 구천면로47길 15, 1층 (암사동)",5265,134-859,37.548997347879000,127.13503919135100,211860.982205202,449623.094148302
잇잇,분식,서울특별시,송파구,서울특별시 송파구 가락동 913 헬리오시티,"서울특별시 송파구 송파대로 345, 1A동 지하1층 148-3호 (가락동, 헬리오시티)",5698,138-160,37.49771431453580,127.10725167195400,209412.197809542,443928.783342251
서울초밥,일식,서울특별시,양천구,"서울특별시 양천구 목동 908 광장종합상가3, 1층 104호,105호","서울특별시 양천구 목동서로 49, 광장종합상가3 1층 104호,105호 (목동)",7984,158-878,37.53728749362880,126.88053413629900,189371.998478153,448321.909806254
엠블링크(M'Brink),기타,서울특별시,광진구,서울특별시 광진구 자양동 861 자양 호반써밋,"서울특별시 광진구 능동로 69, 1층 144호 (자양동, 자양 호반써밋)",5074,143-190,37.537672263212400,127.06886122852200,206014.599715389,448359.990459515
비에이치씨 강일뉴타운점,호프/통닭,서울특별시,강동구,서울특별시 강동구 강일동 677-3 트리피움오피스텔,"서울특별시 강동구 아리수로91길 28, 트리피움오피스텔 1층 101호 (강일동)",5211,134-100,37.56527523417000,127.17306363604600,215217.40259223,451435.031470143
기쁨수산,횟집,서울특별시,은평구,서울특별시 은평구 녹번동 131-159 영선빌딩 1층,"서울특별시 은평구 진흥로 154, 영선빌딩 1층 (녹번동)",3375,122-832,37.60891284206410,126.9268408955700,193470.425385241,456266.418488113
한식의품격 광진점,한식,서울특별시,광진구,서울특별시 광진구 화양동 111-12 빌리브 인테라스,"서울특별시 광진구 능동로 172, 빌리브 인테라스 2층 204호 (화양동)",5021,143-915,37.546195624035800,127.07401393827900,206469.210431409,449306.220747298
아비꼬+가락공장 월계점,경양식,서울특별시,노원구,서울특별시 노원구 월계동 333-1 월계이마트,"서울특별시 노원구 마들로3길 15, 월계이마트 2층 (월계동)",1906,139-842,37.627550767984800,127.0618787549200,205391.070378059,458333.989216339
에이원(A1),한식,서울특별시,마포구,서울특별시 마포구 서교동 358-36 서교빌딩,"서울특별시 마포구 와우산로21길 14, 서교빌딩 지하1층 일부호 (서교동)",4040,121-740,37.55268365747340,126.92314880849500,193139.306893387,450026.55206161
일류국수,한식,서울특별시,강북구,서울특별시 강북구 수유동 402-8,"서울특별시 강북구 삼양로 362, 1층 (수유동)",1082,142-870,37.64384847439880,127.02202977777200,201873.421060318,460141.12898254
밥풀릭스 독산점,식육(숯불구이),서울특별시,금천구,서울특별시 금천구 독산동 291-5 시티렉스,"서울특별시 금천구 시흥대로 399, 시티렉스 지상1층 117호 (독산동)",8584,153-813,37.469600422995000,126.89745033469000,190858.649482406,440808.541334678
힐링타임365,호프/통닭,서울특별시,종로구,서울특별시 종로구 인사동 37번지 3층,"서울특별시 종로구 인사동길 16 (인사동,3층)",3163,110290,37.572535328133500,126.9868887938280,198771.23343518,452226.87515513
해피유어데이,기타,서울특별시,강동구,서울특별시 강동구 천호동 25-39,"서울특별시 강동구 양재대로135길 4-23, 1층 104호 (천호동)",5306,134-861,37.549919201759200,127.14328961242500,212589.810596332,449726.470848707
춘만두,한식,서울특별시,강남구,서울특별시 강남구 역삼동 789-1,"서울특별시 강남구 역삼로14길 3, 지상1층 (역삼동)",6249,135-929,37.49453224670740,127.03544851747100,203063.667182529,443570.894439032
그때그시절인생역전,호프/통닭,서울특별시,중랑구,서울특별시 중랑구 면목동 72-57,"서울특별시 중랑구 겸재로 218, 1층 (면목동)",2199,131-815,37.589317289073000,127.09193843647900,208048.384873167,454093.095200938
본죽동부이촌동점,한식,서울특별시,용산구,서울특별시 용산구 이촌동 302-68 기업은행 1층 115호,"서울특별시 용산구 이촌로 182, 기업은행 1층 115호 (이촌동)",4427,140-854,37.52137638602480,126.9673603038320,197044.277002519,446549.892594467
문래동 돈까스,분식,서울특별시,영등포구,서울특별시 영등포구 문래동4가 9-7,"서울특별시 영등포구 도림로147길 2, 1층 (문래동4가)",7288,150-094,37.516941767322300,126.88913449730900,190129.339820301,446063.090850075
팡새로이,일식,서울특별시,송파구,서울특별시 송파구 오금동 18-32,"서울특별시 송파구 마천로7가길 10, 1층 (오금동)",5657,138-855,37.50927652189790,127.12799966335300,211244.951193461,445214.179706853
그늘집,경양식,서울특별시,강동구,서울특별시 강동구 성내동 428-6,"서울특별시 강동구 양재대로 1349, 3층 (성내동)",5404,134-890,37.5269836398915,127.13535308169000,211892.212204753,447180.141558476
명량간장게장(주) 마곡점,한식,서울특별시,강서구,서울특별시 강서구 마곡동 797-4 발산파크프라자 (지상 2층) 208호,"서울특별시 강서구 공항대로 261, 2층 208호 (마곡동, 가양 1동 발산파크프라자)",7803,157-210,37.55935622194360,126.83651958310400,185486.670321459,450776.897789941
오늘통닭 사당점 & 아우라,한식,서울특별시,서초구,서울특별시 서초구 방배동 452-6 1층,"서울특별시 서초구 방배천로4길 1, 1층 (방배동)",6692,137-818,37.47852747215060,126.98287614327200,198414.811048893,441794.353073883
낮밤,기타,서울특별시,강북구,서울특별시 강북구 수유동 192-3 태광빌딩,"서울특별시 강북구 한천로139나길 1, 태광빌딩 2층 (수유동)",1072,142-878,37.63927785520410,127.02525774142600,202158.404849077,459633.960977278
생활맥주 매봉역점,기타,서울특별시,강남구,서울특별시 강남구 도곡동 417,"서울특별시 강남구 논현로38길 36, 1층 (도곡동)",6296,135-854,37.48565647082090,127.04472665610200,203884.511966239,442586.247767883
쥐쥐엔비카페(GGNB_Cafe),경양식,서울특별시,강서구,서울특별시 강서구 내발산동 666-4 1층,"서울특별시 강서구 강서로 330, 1층 (내발산동, 우장산동)",7652,157-280,37.55534463015960,126.8375037520710,185572.843228502,450331.554445763
주식회사 라스피쉬,기타,서울특별시,강남구,서울특별시 강남구 역삼동 798-25,"서울특별시 강남구 논현로63길 15, 지상1층 A호 (역삼동)",6257,135-930,37.49300591693000,127.03946231857,203418.642303453,443401.648119696
bhc 롯데월드 빅토리아점,기타,서울특별시,송파구,서울특별시 송파구 잠실동 40-1 롯데월드,"서울특별시 송파구 올림픽로 240, 롯데월드 매직아일랜드 1층 (잠실동)",5554,138-721,37.5114832268089,127.09796328419000,208589.363343145,445455.90405262
쌍둥이네,한식,서울특별시,송파구,서울특별시 송파구 가락동 600 가락동 농수산물도매시장,"서울특별시 송파구 양재대로 932, 가락몰4관 편의시설  지하1층 055-1호 (가락동)",5699,138-881,37.493677306212300,127.11152949781800,209790.959909032,443481.212174317
직화배기,한식,서울특별시,강남구,서울특별시 강남구 역삼동 705-9,"서울특별시 강남구 테헤란로 329, 지하1층 116호 (역삼동, 삼흥오피스텔)",6150,135-922,37.50484151619920,127.04746160177000,204125.312646525,444715.426086333
오유부(OYUBU),일식,서울특별시,영등포구,서울특별시 영등포구 문래동5가 10 하우스디 비즈,"서울특별시 영등포구 선유로3길 10, 하우스디 비즈 1층 128호 (문래동5가)",7285,150-095,37.51628575325880,126.88678617577900,189921.671894763,445990.538307199
물고기주택 극진,기타,서울특별시,용산구,서울특별시 용산구 한강로3가 40-137 지상1층,"서울특별시 용산구 한강대로 57, 지상1층 (한강로3가)",4379,140-780,37.52633690769560,126.96463674176500,196803.753932819,447100.47859202
초밥집,일식,서울특별시,관악구,서울특별시 관악구 신림동 1525-7,"서울특별시 관악구 호암로 596, 1층 (신림동)",8812,151-895,37.470621986660200,126.93361626769700,194057.633027178,440919.012931672
모미모미 건대스타시티점,일식,서울특별시,광진구,서울특별시 광진구 자양동 227-342 롯데백화점건대스타시티점 지하1층 델리코너,"서울특별시 광진구 능동로 92 (자양동, 롯데백화점건대스타시티점 지하1층 델리코너)",5065,143-758,37.5389885753108,127.07115774660800,206217.434726027,448506.218743834
꾸이한끼 잠실새내점,한식,서울특별시,송파구,서울특별시 송파구 잠실동 190-6 향원빌딩,"서울특별시 송파구 백제고분로9길 27, 향원빌딩 지하1층 3호 (잠실동)",5560,138-861,37.50998212004320,127.08214600966400,207191.239016722,445287.9917874
해뜰날 포장마차,호프/통닭,서울특별시,종로구,서울특별시 종로구 종로5가 246-2,서울특별시 종로구 종로38길 5 (종로5가),3197,110-836,37.57078763430490,127.00511811873000,200381.425149709,452032.840004616
화이트 브릭 야드 (WHITE BRICK YARD),기타,서울특별시,중구,서울특별시 중구 신당동 50-9 1층,"서울특별시 중구 퇴계로80길 51-6, 1층 (신당동)",4585,100-897,37.5631763669655,127.01774732043900,201497.131603847,451188.295032816
인씨주막,정종/대포집/소주방,서울특별시,영등포구,서울특별시 영등포구 양평동4가 27-6 지상3층,"서울특별시 영등포구 선유동2로 73, 지상3층 (양평동4가)",7212,150-866,37.53530192772290,126.89849032502000,190958.563625386,448099.682002392
치맥파이브(CHIMAC'5/선데이비어),한식,서울특별시,동대문구,서울특별시 동대문구 회기동 45-102,"서울특별시 동대문구 회기로21길 8-6, 1층 (회기동)",2453,130-872,37.59178366945590,127.0533175785270,204637.644906035,454364.198258933
을지로 골뱅이,한식,서울특별시,송파구,서울특별시 송파구 송파동 27-8 1층,"서울특별시 송파구 백제고분로41길 28, 1층 (송파동)",5622,138-848,37.5086560728869,127.10684209778000,209374.616051507,445143.007051915
아지트,한식,서울특별시,서초구,서울특별시 서초구 방배동 877-13 1층 104호,"서울특별시 서초구 서초대로 117, 1층 104호 (방배동)",6588,137-840,37.488605055985600,126.99509073040300,199495.1390381,442912.575889848
물회앤찜,한식,서울특별시,중랑구,서울특별시 중랑구 면목동 455-19 미래하이츠,"서울특별시 중랑구 면목로44나길 28, 1층 101호 (면목동, 미래하이츠)",2210,131-813,37.58249518602670,127.09058522797500,207929.607402131,453335.88487932
미림커피,호프/통닭,서울특별시,양천구,서울특별시 양천구 신정동 1148-2 지하1층,"서울특별시 양천구 중앙로 235 (신정동, 지하1층)",8077,158-863,37.51755949815470,126.85381842603200,187007.685,446135.935
난바스낵(NAMBA SNACK),일식,서울특별시,마포구,서울특별시 마포구 성산동 253-5,"서울특별시 마포구 월드컵로 120, 1층 (성산동)",3971,121-847,37.55925502448930,126.90777357086200,191781.584437529,450757.050927564
육명,한식,서울특별시,성동구,서울특별시 성동구 도선동 253-5 외2필지(지상1층),"서울특별시 성동구 왕십리로24길 3 (도선동, 도선동 253-5외2필지 지상1층)",4709,133-882,37.56313606653410,127.03362955049700,202900.174381742,451184.194186821
쿠마카세,한식,서울특별시,양천구,서울특별시 양천구 목동 406-76 1층,"서울특별시 양천구 목동동로 226-11, 1층 (목동)",8000,158-806,37.52578604950250,126.8727222507350,188679.916735909,447046.439107798
코코브리또,"외국음식전문점(인도,태국등)",서울특별시,강서구,서울특별시 강서구 내발산동 750-9 웨스트엔드문화센터,"서울특별시 강서구 수명로 68-27, 웨스트엔드문화센터 1층 101호 (내발산동)",7635,157-937,37.552880504030500,126.82667095226000,184615.262498687,450059.812591304
남원골명품추어탕,한식,서울특별시,양천구,서울특별시 양천구 신월동 23-21 초원빌딩 1층,"서울특별시 양천구 화곡로 95, 초원빌딩 1층 (신월동)",7903,158-822,37.54004388302270,126.83250048299200,185127.766487574,448634.315634136
치즈웨이브,정종/대포집/소주방,서울특별시,서대문구,"서울특별시 서대문구 창천동 52-147 (지상1,2층)","서울특별시 서대문구 연세로7안길 34-6 (창천동,(지상1,2층))",3788,120-834,37.5585775524227,126.93507753385800,194193.69954167,450679.830562371
해달,경양식,서울특별시,강남구,서울특별시 강남구 논현동 88-5 태승빌딩,"서울특별시 강남구 학동로33길 7, 태승빌딩 지하1층 (논현동)",6052,135-818,37.51537034962890,127.03258312917200,202809.524792358,445883.318882881
골목집,한식,서울특별시,용산구,서울특별시 용산구 한남동 639-13 (지상1층),"서울특별시 용산구 대사관로24길 9 (한남동,(지상1층))",4402,140-887,37.53328293536240,127.00471642262500,200346.116197926,447870.711806968
강남불짬뽕,중국식,서울특별시,양천구,서울특별시 양천구 신정동 908-14 1층,"서울특별시 양천구 은행정로 67, 1층 (신정동)",7944,158-857,37.5260386824889,126.85882481331600,187451.64086744,447076.238472376
굽모닝 숯불바베큐,한식,서울특별시,중랑구,서울특별시 중랑구 면목동 352-17,서울특별시 중랑구 면목로33길 20 (면목동),2240,131-827,37.57699184683480,127.08470798944500,207411.089726531,452724.662659227
바다수다,분식,서울특별시,관악구,서울특별시 관악구 봉천동 1564-4,"서울특별시 관악구 쑥고개로 73-1, 1층 (봉천동)",8785,151-841,37.47979885140310,126.94476068670200,195043.957339586,441936.767990877
조박사토종순대국,한식,서울특별시,송파구,"서울특별시 송파구 신천동 7-0 장미A상가2동지층37,44호","서울특별시 송파구 올림픽로 35-124 (신천동,  장미A상가2동지층37,44호 )",,138-934,37.5190824308864,127.09930500001200,208707.089897534,446299.352775446
망우돌곱창,정종/대포집/소주방,서울특별시,중랑구,서울특별시 중랑구 망우동 491-39,서울특별시 중랑구 용마산로115길 59 (망우동),2167,131-810,37.59847921784240,127.0970634464180,208499.929616625,455110.309742294
삼성족발,한식,서울특별시,강남구,서울특별시 강남구 삼성동 106-8,"서울특별시 강남구 영동대로112길 9, 1층 4호 (삼성동)",6082,135-873,37.51540997626210,127.06097189705900,205318.996506949,445888.942789335
풍성집,한식,서울특별시,용산구,서울특별시 용산구 한강로1가 231-21 (지상1층),"서울특별시 용산구 한강대로62길 38 (한강로1가,(지상1층))",4382,140-011,37.533472584941200,126.9734810933890,197585.681337203,447892.101768921
보라문구,한식,서울특별시,용산구,서울특별시 용산구 이태원동 273-12,"서울특별시 용산구 녹사평대로54길 19, 1층 (이태원동)",4343,140-861,37.53938266965890,126.98841403859600,198905.472388209,448547.699839364
손건호의 한우일번지,한식,서울특별시,성동구,서울특별시 성동구 마장동 523-4,서울특별시 성동구 고산자로 354 (마장동),4748,133-814,37.57132239813710,127.03836014483700,203317.713706239,452092.840534158
토리키치 위례중앙점,일식,서울특별시,송파구,서울특별시 송파구 장지동 896 위례중앙푸르지오2단지,"서울특별시 송파구 위례광장로 290, 상가동 1층 125호 (장지동, 위례중앙푸르지오2단지)",5852,138-926,37.47495282470890,127.1428446012200,212563.050500552,441406.981434166
시루앤도마,기타,서울특별시,동대문구,서울특별시 동대문구 청량리동 60 한신아파트,"서울특별시 동대문구 제기로 131, 121동 6호 (청량리동, 한신아파트)",2463,130-867,37.58820501240960,127.04922012977100,204276.018152594,453966.855703805
크런치 샌드위치,기타,서울특별시,마포구,서울특별시 마포구 대흥동 328-17 더해피 II,"서울특별시 마포구 독막로38길 10, 더해피 II 1층 102호 (대흥동)",4150,121-810,37.54611233507260,126.94134992595000,194746.963940607,449296.119639247
초이다이닝 혜화대학로점,일식,서울특별시,종로구,서울특별시 종로구 명륜4가 85-10 2층,"서울특별시 종로구 대학로11길 16, 2층 (명륜4가)",3078,110-524,37.582591398113200,127.00089684519600,200008.553114291,453342.772832439
개나리아구찜 본점,한식,서울특별시,송파구,서울특별시 송파구 방이동 68-5,서울특별시 송파구 오금로15길 7-8 (방이동),5548,138-829,37.512848963490800,127.10909940332000,209573.636904332,445608.542098873
전주이맛콩나물국밥역삼충현점,한식,서울특별시,강남구,서울특별시 강남구 역삼동 669-2,서울특별시 강남구 논현로98길 12 (역삼동),6140,135-915,37.503918486194500,127.0368403389750,203186.335,444612.58
맛과멋,한식,서울특별시,은평구,서울특별시 은평구 갈현동 504-1 1층,"서울특별시 은평구 갈현로27길 3, 1층 (갈현동)",3324,122-814,37.61824124336880,126.91466711913500,192396.597538128,457302.57586706
팔당낙지,한식,서울특별시,은평구,서울특별시 은평구 갈현동 504-1 1층,"서울특별시 은평구 갈현로27길 3, 1층 (갈현동)",3324,122-814,37.61824124336880,126.91466711913500,192396.597538128,457302.57586706
삐사감김밥 녹번점,한식,서울특별시,은평구,서울특별시 은평구 녹번동 19-121 은평 미드스퀘어,"서울특별시 은평구 통일로 636, 은평 미드스퀘어 1층 120호 (녹번동)",3372,122-825,37.60368441193320,126.93533942788600,194220.324789601,455685.624980552
경성밥상 영등포점,한식,서울특별시,영등포구,서울특별시 영등포구 영등포동6가 25-6,"서울특별시 영등포구 양산로 188-1, 지하1층 3호 (영등포동6가)",7251,150-036,37.52295933431630,126.9039350348810,191438.319709497,446729.443921571
루웨이도삭면( 鹵味刀削面),중국식,서울특별시,영등포구,서울특별시 영등포구 대림동 706-4 미래산업빌딩,"서울특별시 영등포구 도림로 150, 미래산업빌딩 1층 3호 (대림동)",7417,150-814,37.49390797887320,126.89867337491100,190969.754112801,443505.951042562
대림연회루,중국식,서울특별시,영등포구,서울특별시 영등포구 대림동 1055-1 풍림빌딩,"서울특별시 영등포구 도림로 126, 풍림빌딩 3층, 4층 (대림동)",7416,150-070,37.49256026473570,126.89645107476700,190773.087920526,443356.603865789
비건이지,기타,서울특별시,영등포구,서울특별시 영등포구 신길동 325-57,"서울특별시 영등포구 가마산로61길 5-1, 1층 (신길동)",7382,150-841,37.50592951540570,126.9051046407430,191539.776426969,444839.445918231
혜민당,한식,서울특별시,용산구,서울특별시 용산구 원효로3가 43-16,"서울특별시 용산구 원효로 141-1, 1층 (원효로3가)",4363,140-848,37.534589761032300,126.95872455762300,196281.622347299,448016.562420335
연어소년,한식,서울특별시,영등포구,서울특별시 영등포구 양평동5가 76 양평동한신아파트,"서울특별시 영등포구 양평로24길 9, 109동 1층 1-15호 (양평동5가, 양평동한신아파트)",7204,150-751,37.54031573181850,126.89210111870000,190394.571819262,448656.726986041
엠무브커피,기타,서울특별시,중랑구,서울특별시 중랑구 망우동 118-1,"서울특별시 중랑구 용마공원로9길 44, 1층 (망우동)",2186,131-801,37.59371182079660,127.10353638146500,209072.059788112,454581.843847415
벤치와인,기타,서울특별시,동작구,서울특별시 동작구 상도1동 390,"서울특별시 동작구 상도로 295, 1층 (상도1동)",6970,156-836,37.50166607627390,126.94948993859100,195463.528823655,444363.244818812
M 홀덤펍,기타,서울특별시,관악구,서울특별시 관악구 신림동 566-8,"서울특별시 관악구 남부순환로 1403, 302호 (신림동)",8765,151-877,37.480870730155600,126.90649490566500,191659.900831907,442058.421242795
컴피(Komfy),경양식,서울특별시,용산구,서울특별시 용산구 한강로2가 123-4,"서울특별시 용산구 한강대로42길 4, 2층 (한강로2가)",4382,140-872,37.53092862055440,126.96991291554600,197270.249551857,447609.880945757
범고래 조개구이,횟집,서울특별시,송파구,서울특별시 송파구 문정동 618 파크하비오,"서울특별시 송파구 송파대로 111, 하비오길동 송파대로 201동 116호, 117호 (문정동, 파크하비오)",5837,138-888,37.480797656642,127.12369352293200,210868.397496689,442053.227933005
한사리감자탕&뼈구이 문정점,한식,서울특별시,송파구,서울특별시 송파구 문정동 618 파크하비오,"서울특별시 송파구 송파대로 111, 한사리감자탕&뼈구이 문정점동 135호, 136호 (문정동, 파크하비오)",5837,138-888,37.480797656642,127.12369352293200,210868.397496689,442053.227933005
화야,한식,서울특별시,서초구,서울특별시 서초구 양재동 267-4 성풍빌딩 2층,"서울특별시 서초구 마방로6길 7-46, 성풍빌딩 2층 (양재동)",6776,137-895,37.47629344138720,127.04348982122700,203775.607550832,441547.137029892
돈오당,한식,서울특별시,영등포구,서울특별시 영등포구 여의도동 44-23 하남빌딩,"서울특별시 영등포구 의사당대로1길 25, 하남빌딩 지하1층 8,9호 (여의도동)",7333,150-744,37.520552989086600,126.92972475091200,193717.614335836,446460.363567554
진맛집,한식,서울특별시,서대문구,서울특별시 서대문구 홍제동 266-151 마을탕,"서울특별시 서대문구 세무서길 103, 마을탕 1층 (홍제동)",3624,120-857,37.59260979510550,126.94728171859200,195274.038734006,454455.929009429
연남5701,경양식,서울특별시,서대문구,서울특별시 서대문구 대현동 104-48 위고인 호스텔,"서울특별시 서대문구 신촌로 141, 위고인 호스텔 9층 (대현동)",3780,120-809,37.55722464993030,126.94160492507300,194770.272306267,450529.307302535
일품공방,한식,서울특별시,서대문구,서울특별시 서대문구 창천동 30-33 현대백화점신촌점,"서울특별시 서대문구 신촌로 83, 현대백화점신촌점 지하1층 (창천동)",3789,120-706,37.55636005264720,126.93588728462800,194265.067639805,450433.691021245
김말이와 떡볶이,분식,서울특별시,동작구,서울특별시 동작구 상도동 210-385,"서울특별시 동작구 양녕로26길 4, 1층 (상도동)",7037,156-841,37.49836989893020,126.94386763770000,194966.223604209,443997.736810657
빽보이피자 쌍문점,기타,서울특별시,도봉구,서울특별시 도봉구 쌍문동 20,"서울특별시 도봉구 도당로 7, 1층 105,105-1호 (쌍문동)",1385,132-858,37.658959987360900,127.03479065505300,202998.896551621,461818.506049631
입큰개구리,경양식,서울특별시,강동구,서울특별시 강동구 성내동 553-3,"서울특별시 강동구 성내로 8-20, 1층 (성내동)",5398,134-851,37.52994103234750,127.12112814920900,210634.54886181,447506.637021555
사미반점 고덕점,중국식,서울특별시,강동구,서울특별시 강동구 고덕동 187-3,"서울특별시 강동구 고덕로83길 52, 1층 103호 (고덕동)",5222,134-801,37.559546981744100,127.16878115166000,214840.232961853,450798.645497299
카페리빈,기타,서울특별시,강동구,서울특별시 강동구 천호동 572 현대백화점,"서울특별시 강동구 천호대로 1005, 현대백화점 지2층 (천호동)",5328,134-779,37.53922579603000,127.1244855528510,210929.919693661,448537.406728283
허선생네 반학년 건조반 생선들,호프/통닭,서울특별시,도봉구,서울특별시 도봉구 창동 5 창동다모아빌딩,"서울특별시 도봉구 마들로11가길 12, 창동다모아빌딩 1층 106호 (창동)",1414,132-898,37.65301590064910,127.04883508737900,204238.33386129,461159.384486912
덴마,한식,서울특별시,송파구,서울특별시 송파구 방이동 58-23,"서울특별시 송파구 올림픽로34길 18, 302호 (방이동)",5547,138-828,37.51519958249350,127.11098541229200,209740.054132228,445869.596734991
육회왕자연어공주 아현점,한식,서울특별시,서대문구,서울특별시 서대문구 북아현동 180-27,"서울특별시 서대문구 북아현로 65, 1층 (북아현동)",3762,120-818,37.563144715761200,126.95497648771800,195951.934741323,451185.634370153
맛집상회,한식,서울특별시,송파구,서울특별시 송파구 마천동 136-18,"서울특별시 송파구 마천로45길 18, 1층 (마천동)",5751,138-819,37.49765796637800,127.1505758030310,213242.8239632,443927.744045074
직화커피 서양콩차,기타,서울특별시,강서구,서울특별시 강서구 마곡동 795-1 필네이처 107호,"서울특별시 강서구 마곡중앙8로 86, 필네이처 1층 107호 (마곡동)",7803,157-210,37.560839341201000,126.8369267723910,185522.93039364,450941.426239756
더블린브루어리 교대점,경양식,서울특별시,서초구,서울특별시 서초구 서초동 1570-12 1층,"서울특별시 서초구 서초대로50길 30, 더테라스 1층 (서초동)",6645,137-874,37.4920261394756,127.01290843221100,201070.679154837,443292.284108128
홍보각,중국식,서울특별시,강남구,서울특별시 강남구 역삼동 603 노보텔 앰배서더 강남 서울,"서울특별시 강남구 봉은사로 130, 노보텔 앰배서더 강남 서울 지하2층 (역삼동)",6124,135-907,37.50549967336270,127.02888219739100,202482.701418444,444787.812950605
함수라,한식,서울특별시,강남구,서울특별시 강남구 논현동 198,"서울특별시 강남구 강남대로114길 8, 지상1층 (논현동)",6120,135-827,37.5058538138684,127.02492782940800,202133.092091488,444827.01681074
우브리앙,한식,서울특별시,강남구,서울특별시 강남구 역삼동 603 노보텔 앰배서더 강남 서울,"서울특별시 강남구 봉은사로 130, 노보텔 앰배서더 강남 서울 지하2층 (역삼동)",6124,135-907,37.50549967336270,127.02888219739100,202482.701418444,444787.812950605
삼미정,한식,서울특별시,중구,서울특별시 중구 황학동 67,"서울특별시 중구 마장로9길 37, 1층 (황학동)",4571,100-868,37.57020095352500,127.01905358044900,201612.375604261,451967.88007363
崔先生美食(최가네 맛집),중국식,서울특별시,관악구,서울특별시 관악구 신림동 92-251 피렌체,"서울특별시 관악구 신림로 248, 피렌체 1층 (신림동)",8783,151-853,37.478318376789,126.93415394596600,194105.794849013,441773.083735498
도파민(Dopamine),경양식,서울특별시,강남구,서울특별시 강남구 신사동 655-4,"서울특별시 강남구 선릉로155길 13, 지하1층 (신사동)",6019,135-897,37.52554500835080,127.03859268281800,203340.296112796,447012.653659741
리알토(RIALTO),경양식,서울특별시,강남구,서울특별시 강남구 청담동 12-12,"서울특별시 강남구 삼성로149길 13, 지상2층 (청담동)",6063,135-949,37.52338436635010,127.04656799054500,204045.308242768,446773.188147297
고다이 청담점,한식,서울특별시,강남구,서울특별시 강남구 논현동 95-16 논현빌딩,"서울특별시 강남구 도산대로50길 13, 논현빌딩 지상1층 (논현동)",6055,135-529,37.5218004899626,127.03770792649500,203262.260202912,446597.07239259
지노스피자,"외국음식전문점(인도,태국등)",서울특별시,강남구,서울특별시 강남구 신사동 661-13,"서울특별시 강남구 선릉로161길 18, 지상2층 (신사동)",6018,135-897,37.527689981493900,127.03903631870900,203379.409989484,447250.709331037
보나의 부엌,기타,서울특별시,강남구,서울특별시 강남구 삼성동 189 래미안 라클래시,"서울특별시 강남구 삼성로 651, 근린생활시설동 지하1층 B05호 (삼성동, 래미안 라클래시)",6091,135-090,37.51766564085750,127.05000810399300,204349.702499292,446138.702900265
정성라멘,일식,서울특별시,강남구,서울특별시 강남구 역삼동 708-33 역삼동 벤처빌딩,"서울특별시 강남구 테헤란로52길 21, 역삼동 벤처빌딩 지하1층 8호 (역삼동)",6212,135-919,37.50312354495330,127.04856424249500,204222.892946797,444524.822711989
피크베크(PEAKBAKE),기타,서울특별시,강남구,서울특별시 강남구 개포동 1184-4 노블리스 주 빌딩,"서울특별시 강남구 개포로22길 72, 노블리스 주 빌딩 지상1층 (개포동)",6314,135-961,37.47507123467870,127.05112071518100,204450.57773879,441411.836284729
우화당 블랙,한식,서울특별시,강남구,서울특별시 강남구 삼성동 153-59,"서울특별시 강남구 삼성로100길 25, 지하1층 (삼성동)",6166,135-878,37.51031217122450,127.05746078697500,205008.966649627,445323.019049064
낙지야 왜조개?,중국식,서울특별시,강서구,서울특별시 강서구 마곡동 793-9 플레이스에이치,"서울특별시 강서구 강서로 395, 플레이스에이치 1층 107호 (마곡동)",7794,157-210,37.561241214436500,126.83857500929200,185668.617836982,450985.772091558
콘부 을지로,일식,서울특별시,중구,서울특별시 중구 저동2가 7-6,"서울특별시 중구 수표로 42-19, 1층 (저동2가)",4550,100-032,37.5652880097923,126.99034781101800,199076.676411233,451422.553844401
100조맥주 공덕본점,호프/통닭,서울특별시,마포구,서울특별시 마포구 공덕동 255-16,"서울특별시 마포구 마포대로 110, 1,2층 (공덕동)",4213,121-803,37.54470794370860,126.95180799958300,195670.963021031,449139.732955421
제이,경양식,서울특별시,강남구,서울특별시 강남구 역삼동 720-21,"서울특별시 강남구 테헤란로38길 11, 지하1층 (역삼동)",6221,135-920,37.50148780675930,127.04179658191400,203624.635147547,444343.014162228
생활맥주 발산역점,한식,서울특별시,강서구,서울특별시 강서구 마곡동 795-6 뉴골든타워 106호,"서울특별시 강서구 마곡중앙6로 89, 뉴골든타워 1층 106호 (마곡동)",7803,157-210,37.56038826254320,126.8372828392990,185554.299381324,450891.312361248
포포나무,한식,서울특별시,서대문구,"서울특별시 서대문구 대현동 53-9 외 2필지(53-10, 53-15) 1층 일부","서울특별시 서대문구 이화여대2가길 24, 1층 (대현동)",3767,120-808,37.558739011671500,126.9462580136070,195181.457875401,450697.116797146
신돈,호프/통닭,서울특별시,송파구,서울특별시 송파구 잠실동 190-6 향원빌딩,"서울특별시 송파구 백제고분로9길 27, 향원빌딩 1층 101호 (잠실동)",5560,138-861,37.50998212004320,127.08214600966400,207191.239016722,445287.9917874
요커 강남점,기타,서울특별시,서초구,서울특별시 서초구 반포동 722-38 태영빌딩,"서울특별시 서초구 강남대로 521-4, 1층 4호 (반포동)",6536,137-809,37.50870367783960,127.02212086335200,201884.862299616,445143.221393513
팔팔(88)제육:홍대점,한식,서울특별시,마포구,서울특별시 마포구 상수동 90-8 지하1층 3호,"서울특별시 마포구 와우산로13길 9, 지하1층 3호 (상수동)",4049,121-828,37.54981479309460,126.92260177218400,193090.709915804,449708.216602317
동화고옥선릉,한식,서울특별시,강남구,서울특별시 강남구 역삼동 705-27,"서울특별시 강남구 테헤란로 337, 지상14층 (역삼동)",6150,135-922,37.504984930111100,127.04847798956500,204215.162571746,444731.386522359
종로다슬기국수,한식,서울특별시,종로구,서울특별시 종로구 효제동 267,"서울특별시 종로구 종로35길 33, 1층 (효제동)",3126,110-480,37.57293528467590,127.00369206550600,200255.452642959,452271.17391562
샤오바오우육면 강남신세계점,중국식,서울특별시,서초구,서울특별시 서초구 반포동 19-3 센트럴시티,"서울특별시 서초구 신반포로 176, 신사계백화점 강남점 지하1층 (반포동)",6546,137-960,37.50456049295350,127.00363281614400,200250.447804795,444683.220506107
정드린치킨,호프/통닭,서울특별시,도봉구,서울특별시 도봉구 쌍문동 503-1 1층,"서울특별시 도봉구 삼양로 586, 1층 (쌍문동)",1366,132-890,37.65558318343610,127.0134011691140,201111.814808903,461443.285926678
隨緣호프(수연호프),호프/통닭,서울특별시,금천구,서울특별시 금천구 독산동 146-11,"서울특별시 금천구 시흥대로141길 66, 2층 (독산동)",8531,153-806,37.475941026677400,126.89790145913600,190899.320579047,441512.144212607
cream label,한식,서울특별시,서초구,서울특별시 서초구 반포동 118-3 파미에스테이션,"서울특별시 서초구 사평대로 205, 파미에스테이션 1층 FP109호 (반포동)",6545,137-040,37.50421391621660,127.00661386269000,200514.002958761,444644.771176041
에뚜왈 오뎅바,일식,서울특별시,구로구,서울특별시 구로구 고척동 76-94,"서울특별시 구로구 경인로47길 7, 지1층 (고척동)",8223,152-826,37.50010283971650,126.86707306174700,188176.565091362,444196.927356441
88제육 구로점,한식,서울특별시,구로구,서울특별시 구로구 구로동 110-7 신도림 명남 더블레스,"서울특별시 구로구 구로중앙로28다길 12, 신도림 명남 더블레스 지상 1층, 지하1층 101호, B03호 (구로동)",8295,152-844,37.501288579273700,126.88911367594400,190125.437526805,444325.97443676
쿠우쿠우 블루레일 건대직영점,일식,서울특별시,광진구,서울특별시 광진구 화양동 7-44 단산화빌딩,"서울특별시 광진구 아차산로 225, 단산화빌딩 5층 (화양동)",5018,143-914,37.541158786301900,127.0684891150850,205981.437370247,448746.886835206
몽성삼겹,한식,서울특별시,금천구,서울특별시 금천구 가산동 145-9 정우센스빌,"서울특별시 금천구 남부순환로112길 56, 1층 102호 (가산동, 정우센스빌)",8528,153-801,37.477476882810300,126.89294407971700,190461.06900836,441683.076127519
YaY!Sophie!,경양식,서울특별시,용산구,서울특별시 용산구 원효로3가 21,"서울특별시 용산구 원효로41가길 16, 1층 101호 (원효로3가)",4363,140-848,37.534662011843800,126.95736536905700,196161.509033243,448024.63512152
국밥대장 SKV1,한식,서울특별시,금천구,서울특별시 금천구 가산동 673,"서울특별시 금천구 가산디지털1로 16, Aptower 제지1층 제비124-알호 (가산동)",8591,153-803,37.46779558119070,126.88799362752700,190021.956927088,440609.209534256
블루펭귄,기타,서울특별시,광진구,서울특별시 광진구 구의동 239-33 1층,"서울특별시 광진구 광나루로40길 66, 1층 (구의동)",5037,143-824,37.54201121927290,127.08883263358100,207779.030804216,448842.974965009
달호프,호프/통닭,서울특별시,광진구,서울특별시 광진구 중곡동 241-28 1층,"서울특별시 광진구 긴고랑로 33, 1층 (중곡동)",4910,143-903,37.563400844661700,127.0802073135920,207014.846499942,451216.035223994
마시동,한식,서울특별시,강동구,서울특별시 강동구 길동 99-1 도림시티빌,"서울특별시 강동구 명일로 238, 1층 106호 (길동, 도림시티빌)",5345,134-808,37.54006840586970,127.14701980942000,212921.096131717,448633.774021252
가토베이글(Gato Bagel),기타,서울특별시,광진구,서울특별시 광진구 구의동 241-7 1층,"서울특별시 광진구 아차산로57길 33, 1층 (구의동)",5041,143-824,37.54029563063440,127.0884382814830,207744.361198831,448652.553304696
오나리분식,한식,서울특별시,강동구,서울특별시 강동구 둔촌동 27 유창빌딩,"서울특별시 강동구 동남로49길 67-32, 유창빌딩 1층 104호 (둔촌동)",5367,134-817,37.53162105291220,127.14540503529700,212779.843802641,447696.100544968
구르메 달 가드시,기타,서울특별시,동대문구,서울특별시 동대문구 용두동 127-19,"서울특별시 동대문구 천호대로16길 6, 1층 (용두동)",2588,130-821,37.57384409265700,127.03119798963200,202684.985006962,452372.460668681
영카츠 외대점,경양식,서울특별시,동대문구,서울특별시 동대문구 이문동 288-17,"서울특별시 동대문구 휘경로 3-13, 1층 (이문동)",2419,130-830,37.597053352439200,127.06095337046800,205311.560654403,454949.416048354
철판남,분식,서울특별시,종로구,서울특별시 종로구 필운동 155-2,서울특별시 종로구 자하문로1길 53 (필운동),3041,110044,37.57710548501310,126.96947790284900,197233.511341605,452734.425654957
쌍문동 닭한마리,한식,서울특별시,도봉구,서울특별시 도봉구 창동 608-71,"서울특별시 도봉구 도봉로110아길 31, 1층 (창동)",1457,132-919,37.64501041299330,127.03774642739400,203260.28555679,460270.50850309
월미당 수유점,"외국음식전문점(인도,태국등)",서울특별시,강북구,서울특별시 강북구 수유동 173-4 재영빌딩,"서울특별시 강북구 도봉로 381, 재영빌딩 1층 (수유동)",1054,142-876,37.64134259698760,127.02857202650700,202450.823926223,459863.182891072
불완전,일식,서울특별시,강북구,서울특별시 강북구 수유동 221-36,"서울특별시 강북구 노해로14길 7, 1층 (수유동)",1072,142-878,37.63987882002760,127.02317754252400,201974.810606318,459700.608901767
훅트포케 목동점,"외국음식전문점(인도,태국등)",서울특별시,양천구,서울특별시 양천구 목동 917 목동파라곤,"서울특별시 양천구 목동서로 155, 목동파라곤 1층 114호 (목동)",7997,158-761,37.52970430125780,126.8751587244030,188895.844080632,447480.979609884
쓰리비플러스(threebplus)구로점,한식,서울특별시,관악구,서울특별시 관악구 신림동 543-24,"서울특별시 관악구 남부순환로143길 10, 1층 (신림동)",8767,151-876,37.481969498174200,126.91101209106300,192059.505414708,442179.966332481
뽁당볶음밥 면목점,한식,서울특별시,중랑구,서울특별시 중랑구 면목동 148-9,"서울특별시 중랑구 겸재로 129, 1층 (면목동)",2147,131-820,37.58753839131390,127.08213666874700,207182.966980519,453894.884010839
화려한짬뽕,중국식,서울특별시,강동구,서울특별시 강동구 상일동 274-7,"서울특별시 강동구 상일로5길 16, 2층 (상일동)",5282,134-837,37.54929070925390,127.17220928383500,215145.165740692,449660.98899642
반하다,기타,서울특별시,구로구,서울특별시 구로구 구로동 767-146,"서울특별시 구로구 도림로 53-1, 1층 (구로동)",8314,152-873,37.48885646331350,126.88983268916600,190187.381462807,442946.243649715
칼국수,한식,서울특별시,서초구,서울특별시 서초구 양재동 286-12 1층 101호,"서울특별시 서초구 동산로19길 30-2, 1층 101호 (양재동)",6782,137-895,37.47425219829710,127.04667919733300,204057.795297117,441320.743329807
스쿱(scooop),경양식,서울특별시,서초구,서울특별시 서초구 서초동 1697-11 2층,"서울특별시 서초구 서초중앙로28길 16, 2층 (서초동)",6604,137-883,37.49709467633120,127.01484459405200,201241.798908853,443854.789068292
언노운코드,경양식,서울특별시,동대문구,서울특별시 동대문구 제기동 137-125,"서울특별시 동대문구 제기로 9-13, 1층 (제기동)",2473,130-860,37.587068067951500,127.0338856545790,202921.863486105,453840.093695593
샤오보오 우육면 서울대입구점,중국식,서울특별시,관악구,서울특별시 관악구 봉천동 856-1 대우디오슈페리움2단지,"서울특별시 관악구 관악로 168, 1층 104호 (봉천동, 대우디오슈페리움2단지)",8788,151-848,37.480460888206100,126.95314651191500,195785.625847341,442009.829041898
야마모리야,일식,서울특별시,성북구,서울특별시 성북구 길음동 542-1 길음역롯데캐슬트윈골드아파트,"서울특별시 성북구 길음로 11, 지1층 B19,20호 (길음동, 길음역롯데캐슬트윈골드아파트)",2722,136-802,37.60394932472360,127.02315631271200,201973.88683884,455713.244570106
보승회관 길음역점,한식,서울특별시,성북구,서울특별시 성북구 길음동 542-1 길음역롯데캐슬트윈골드아파트,"서울특별시 성북구 길음로 11, 지하1층 B56호, B57호 (길음동, 길음역롯데캐슬트윈골드아파트)",2722,136-802,37.60394932472360,127.02315631271200,201973.88683884,455713.244570106
뉴욕돈부리,일식,서울특별시,강북구,서울특별시 강북구 미아동 302-55,"서울특별시 강북구 솔매로 104, 1층 (미아동)",1169,142-812,37.625755034971900,127.02387602799000,202036.837176321,458133.199241137
우이,한식,서울특별시,강북구,서울특별시 강북구 수유동 168-40,"서울특별시 강북구 한천로140길 72, 1층 (수유동)",1055,142-876,37.64274330080820,127.02939110089200,202523.058175237,460018.651678321
아트모스페라(ATMOSFERA),경양식,서울특별시,동작구,서울특별시 동작구 사당동 1046-40,"서울특별시 동작구 동작대로7길 102, 2층 (사당동)",7024,156-827,37.47729356150000,126.97747973411100,197937.517783105,441657.524669965
짱오기네,분식,서울특별시,동작구,서울특별시 동작구 사당동 267-61,"서울특별시 동작구 사당로14길 10, 102호 (사당동)",7010,156-821,37.483852785788300,126.97186137883100,197440.84501168,442385.571148737
레이브 피자,까페,서울특별시,용산구,서울특별시 용산구 청파동3가 102 1층,"서울특별시 용산구 청파로43길 7, 1층 (청파동3가)",4313,140-133,37.54370017982710,126.9701996917960,197296.055574485,449027.207504436
처갓집양념치킨 건대화양,호프/통닭,서울특별시,광진구,서울특별시 광진구 화양동 12-39,"서울특별시 광진구 능동로13길 44, 1층 (화양동)",5011,143-914,37.54411051105460,127.07014378586700,206127.412962608,449074.563932226
참 꼼장어 앤 찰찰호떡,한식,서울특별시,도봉구,서울특별시 도봉구 쌍문동 100-30,"서울특별시 도봉구 도봉로109길 16, 덕송빌딩 1층 (쌍문동)",1447,132-864,37.647141948073300,127.03240296495900,202788.679518135,460506.889531441
만복순대국,한식,서울특별시,양천구,서울특별시 양천구 신월동 468-2 건우빌라,"서울특별시 양천구 오목로15길 28, 1층 101호 (신월동, 건우빌라)",7932,158-837,37.52564253871850,126.84575555050300,186296.451745182,447034.099862464
지니푸드,한식,서울특별시,노원구,서울특별시 노원구 하계동 251 하계1차청구아파트,"서울특별시 노원구 한글비석로 91, 205동 106호 (하계동, 하계1차청구아파트)",1791,139-872,37.63960034044800,127.07157740749400,206246.106103547,459671.8243378
생각 정리하는 BAR,호프/통닭,서울특별시,성북구,서울특별시 성북구 동선동1가 4-13,"서울특별시 성북구 동소문로20다길 2, 지하1층 (동선동1가)",2845,136-051,37.59171227556630,127.01691154869300,201422.756203753,454355.100629802
전통란주면관,한식,서울특별시,구로구,서울특별시 구로구 가리봉동 126-1,서울특별시 구로구 우마길 17 (가리봉동),8387,152-801,37.48158976988070,126.8885856740080,190076.149210988,442139.953499164
송림식당,한식,서울특별시,구로구,서울특별시 구로구 구로동 1258 중앙유통단지,"서울특별시 구로구 경인로53길 15, 중앙유통단지 판매(편익)시설동 지하1층 A04호 (구로동)",8217,152-721,37.50110090403070,126.87458088012000,188840.515865617,444306.771104527
수정쌈밥2,한식,서울특별시,영등포구,서울특별시 영등포구 여의도동 17-9 더하우스 소호 여의도 오피스텔,"서울특별시 영등포구 의사당대로 26, 더하우스 소호 여의도 오피스텔 지하1층 B115호 (여의도동)",7236,150-874,37.52677744753540,126.91816293963400,192696.265266716,447151.961704536
양가네푸드 가산점,한식,서울특별시,금천구,서울특별시 금천구 가산동 147-43,"서울특별시 금천구 시흥대로153길 64, 비동 101-2호 (가산동)",8529,153-801,37.4770783402366,126.89481574150800,190626.551710768,441638.660000455
새싹,한식,서울특별시,영등포구,서울특별시 영등포구 여의도동 13-22 KCC파크타운,"서울특별시 영등포구 국회대로72길 17, KCC파크타운 2층 204호,205호 (여의도동)",7238,150-870,37.52974779098600,126.92122695016600,192967.351496095,447481.364199462
한식끝판왕 가산점,한식,서울특별시,금천구,서울특별시 금천구 가산동 147-43,"서울특별시 금천구 시흥대로153길 64, 비동 101-3호 (가산동)",8529,153-801,37.4770783402366,126.89481574150800,190626.551710768,441638.660000455
이모가있는집,한식,서울특별시,강남구,서울특별시 강남구 논현동 95-11,서울특별시 강남구 도산대로54길 14 (논현동),6055,135-819,37.52203213942460,127.03851581717500,203333.65866826,446622.808148568
릴리레브,출장조리,서울특별시,서초구,서울특별시 서초구 방배동 984-3 프린스 효령빌딩,"서울특별시 서초구 효령로34길 4, 지하1층 B102호 (방배동)",6704,137-849,37.48155007350720,126.99888965540300,199831.055603482,442129.636458549
메가엠지씨커피 장한평역점,식육(숯불구이),서울특별시,동대문구,서울특별시 동대문구 장안동 463-3,서울특별시 동대문구 천호대로85길 10 (장안동),2644,130-846,37.56257002021710,127.06634138998000,205789.994182119,451122.88876405
하바나,경양식,서울특별시,용산구,서울특별시 용산구 이태원동 112-6 지상1층,"서울특별시 용산구 이태원로27가길 18, 지상1층 (이태원동)",4350,140-863,37.535328196726200,126.99428900920800,199424.602998321,448097.699044744
진리,한식,서울특별시,양천구,서울특별시 양천구 목동 611-14,"서울특별시 양천구 목동중앙북로 7-38, 1층 (목동)",7946,158-811,37.54937949425410,126.86492606752400,187994.638074185,449665.710786217
서울순대국,한식,서울특별시,구로구,서울특별시 구로구 구로동 437,서울특별시 구로구 가마산로 225 (구로동),8284,152-855,37.494301930763300,126.88602702659700,189851.590964125,443550.958203462
수백당 우장산역점,한식,서울특별시,강서구,서울특별시 강서구 화곡동 1170 우장산역 해링턴 타워 132~135호,"서울특별시 강서구 강서로 231, 1층 132~135호 (화곡동, 우장산역 해링턴 타워)",7705,157-010,37.546429546174300,126.8359379169370,185432.7672171,449342.433462083
라화방 마라탕,중국식,서울특별시,강서구,서울특별시 강서구 마곡동 774-9 사이언스타,"서울특별시 강서구 마곡중앙6로 42, 사이언스타 2층 212,213호 (마곡동)",7802,157-210,37.560324598301800,126.83208677342800,185095.247005248,450885.058431205
수퍼마졪,호프/통닭,서울특별시,구로구,서울특별시 구로구 오류동 135-65 덕산빌딩,"서울특별시 구로구 서해안로 2322, 덕산빌딩 1층 (오류동)",8341,152-896,37.49293450375830,126.8427322134060,186023.137638321,443404.755865352
노퉁궈 대림직영점,중국식,서울특별시,영등포구,서울특별시 영등포구 대림동 1057-63 대림차이나타워,"서울특별시 영등포구 도림로38길 9, 대림차이나타워 2층 (대림동)",7419,150-070,37.49242968372730,126.89769174805400,190882.77693047,443341.991743715
포케올데이 방배역점,한식,서울특별시,서초구,서울특별시 서초구 방배동 910-9,"서울특별시 서초구 방배로 87, 2층 2호 (방배동)",6686,137-842,37.48237337970960,126.99689709842700,199654.844410132,442221.008157446
에스와이상사,한식,서울특별시,서초구,서울특별시 서초구 양재동 363,"서울특별시 서초구 강남대로6길 90-23, 지하1층 (양재동)",6789,137-898,37.46877633721520,127.04631456921100,204025.839360878,440713.045996467
오성식당 역삼,한식,서울특별시,강남구,서울특별시 강남구 역삼동 678-16,"서울특별시 강남구 테헤란로33길 13, 지상2층 (역삼동)",6141,135-915,37.5028234574001,127.03916255790900,203391.692475442,444491.140084845
교차로분식,한식,서울특별시,강남구,서울특별시 강남구 역삼동 707-34 한신인터밸리24,"서울특별시 강남구 테헤란로 322, 한신인터밸리24 지하2층 B137호 (역삼동)",6211,135-918,37.50316955702290,127.04654978561900,204044.789948927,444529.84042741
아빠찜 문정역점,한식,서울특별시,송파구,서울특별시 송파구 문정동 51-4,"서울특별시 송파구 문정로 13, 1층 1호 (문정동)",5806,138-825,37.486637269920900,127.12425601998000,210917.293617753,442701.343638125
반코랏,"외국음식전문점(인도,태국등)",서울특별시,송파구,서울특별시 송파구 풍납동 392,"서울특별시 송파구 올림픽로45길 21, 101호 (풍납동)",5537,138-878,37.52753928917890,127.11582177928300,210165.9,447239.515
해랑,한식,서울특별시,강동구,서울특별시 강동구 상일동 283-4,"서울특별시 강동구 상일로3길 24, 1층 (상일동)",5283,134-837,37.54888659053420,127.17173314828800,215103.177463825,449616.064834856
발그레불그레,한식,서울특별시,구로구,서울특별시 구로구 고척동 271-15,"서울특별시 구로구 경인로35길 126, 1층 (고척동)",8229,152-836,37.50224503665640,126.85211288143000,186854.239203343,444436.64273232
망향비빔국수(상암점),기타,서울특별시,마포구,서울특별시 마포구 상암동 1615 PARK M,"서울특별시 마포구 매봉산로 80, PARK M 1층 6호 (상암동)",3927,121-904,37.5787426926311,126.89427961859200,190591.913002866,452920.989704662
맘모스 중화요리,중국식,서울특별시,강서구,서울특별시 강서구 방화동 908 힐스테이트 신방화역 123호,"서울특별시 강서구 초원로16길 3-11, 지1층 123호 (방화동, 힐스테이트 신방화역)",7617,157-220,37.56743192416650,126.815821043971,183659.82326372,451676.508401261
커피사피엔스 구로한영캐슬시티점,기타,서울특별시,구로구,서울특별시 구로구 구로동 830 한영캐슬시티,"서울특별시 구로구 디지털로26길 90, 한영캐슬시티 101동 101호 (구로동)",8393,152-879,37.48140168474500,126.89690381906700,190811.754668537,442118.236573158
청춘식당,한식,서울특별시,금천구,서울특별시 금천구 독산동 1041-36,"서울특별시 금천구 독산로64길 11, 1층 일부호 (독산동)",8559,153-831,37.46525641988020,126.90317762229600,191364.732577887,440325.926883065
맵꼬만 명태찜,한식,서울특별시,금천구,서울특별시 금천구 시흥동 264-4,"서울특별시 금천구 금하로 757, 3층 (시흥동)",8656,153-844,37.45036939714150,126.9138335877300,192305.78986397,438672.924851113
의정부부대찌게,한식,서울특별시,종로구,서울특별시 종로구 숭인동 1414번지 지상1층,"서울특별시 종로구 종로66길 17 (숭인동,지상1층)",3116,110829,37.57420354128320,127.0220358188470,201875.702357184,452412.128680276
금수옥 능이백숙 삼계탕,한식,서울특별시,영등포구,서울특별시 영등포구 여의도동 43 미원빌딩,"서울특별시 영등포구 국제금융로 70, 미원빌딩 지하1층 13호,14호 (여의도동)",7333,150-733,37.52162845077960,126.93064390833800,193798.948251805,446579.652565611
샐러드 점보(SALAD JUMBO),기타,서울특별시,영등포구,서울특별시 영등포구 신길동 257-33,"서울특별시 영등포구 가마산로71길 7-1, 1층 (신길동)",7387,150-841,37.506943833356000,126.90926750411100,191907.91591161,444951.644069491
티지아이프라이데이 롯데월드 빅토리아카트점,패밀리레스트랑,서울특별시,송파구,서울특별시 송파구 잠실동 40-1 롯데월드,"서울특별시 송파구 올림픽로 240, 롯데월드 매직아일랜드 1층 (잠실동)",5554,138-721,37.5114832268089,127.09796328419000,208589.363343145,445455.90405262
선샤인케밥서울스퀘어점,기타,서울특별시,중구,"서울특별시 중구 남대문로5가 541 ,봉래동2가128서울스퀘어지하1층25호","서울특별시 중구 한강대로 416 (남대문로5가,,봉래동2가128서울스퀘어지하1층25호)",4637,100-095,37.55572437093690,126.9738690724590,197620.676444642,450361.506112161
띵굴다이닝,분식,서울특별시,영등포구,서울특별시 영등포구 영등포동4가 442 타임스퀘어,"서울특별시 영등포구 영중로 15, 타임스퀘어 지하1층 (영등포동4가)",7305,150-798,37.51727391836660,126.90333983207300,191385.057392247,446098.555926507
요굿트,기타,서울특별시,동작구,서울특별시 동작구 사당동 141-68,"서울특별시 동작구 사당로29가길 25, 1층 (사당동)",7007,156-816,37.48642623583810,126.97942718185600,198109.983282799,442670.98070623
착한피자 신림점,기타,서울특별시,관악구,서울특별시 관악구 신림동 107-37,"서울특별시 관악구 신림로28길 27, 1층 우측호 (신림동)",8838,151-855,37.47291715310530,126.93530218879800,194206.929046371,441173.613185363
블렌더스(BLENDERS),기타,서울특별시,관악구,서울특별시 관악구 신림동 1577-14,"서울특별시 관악구 남부순환로172길 48, 지1층 (신림동)",8773,151-869,37.48300708374990,126.92318644584400,193136.25325692,442294.155157429
궁극의 갈비살678,한식,서울특별시,관악구,서울특별시 관악구 신림동 1441-36,"서울특별시 관악구 관천로22길 70, 1층 (신림동)",8707,151-891,37.488825355646400,126.92616005794600,193399.736268438,442939.624801188
똘배치킨,호프/통닭,서울특별시,관악구,서울특별시 관악구 봉천동 464-13,"서울특별시 관악구 은천로 119, 1층 3호 (봉천동)",8729,151-823,37.48709227031810,126.94853831062600,195378.494684833,442745.962020207
베스트생갈비&찜닭 봉천점,한식,서울특별시,관악구,서울특별시 관악구 봉천동 495-6,"서울특별시 관악구 은천로19길 6, 1층 (봉천동)",8729,151-825,37.487413618304100,126.94737674034900,195275.797162116,442781.681245213
일품 칼국수&보쌈,한식,서울특별시,노원구,서울특별시 노원구 상계동 602-18 성광빌딩,"서울특별시 노원구 상계로3길 9, 성광빌딩 1층 105,106호 (상계동)",1693,139-821,37.656882905574000,127.0622111047020,205418.274134728,461589.225900283
이정인더스트리(kitchen 3),한식,서울특별시,서초구,서울특별시 서초구 서초동 1601-10 서초 어반하이 오피스텔,"서울특별시 서초구 서초중앙로5길 10-7, 서초 어반하이 오피스텔 지하1층 1(1-1)호 (서초동)",6654,137-953,37.48567062947610,127.01505905330100,201260.953060509,442587.00832355
이정인더스트리(kitchen 4),한식,서울특별시,서초구,서울특별시 서초구 서초동 1601-10 서초 어반하이 오피스텔,"서울특별시 서초구 서초중앙로5길 10-7, 서초 어반하이 오피스텔 지하1층 B04호 (서초동)",6654,137-953,37.48567062947610,127.01505905330100,201260.953060509,442587.00832355
소바 키겐,일식,서울특별시,강남구,서울특별시 강남구 청담동 88-5,"서울특별시 강남구 도산대로55길 20, 지하1층 (청담동)",6014,135-954,37.524982339486200,127.04063555294300,203520.881091068,446950.285626122
국수,한식,서울특별시,송파구,서울특별시 송파구 석촌동 288-7,"서울특별시 송파구 백제고분로40길 13, 103호 (석촌동)",5686,138-847,37.50372093881970,127.1066505525020,209358.298584409,444595.309873531
무무(Moo Moo),분식,서울특별시,동작구,서울특별시 동작구 신대방동 361-37,"서울특별시 동작구 여의대방로24길 66, 1층 (신대방동)",7056,156-848,37.498451360529600,126.9239417423490,193204.447155004,444008.029175943
사오마이(Sao Mai),기타,서울특별시,종로구,서울특별시 종로구 창신동 693-3 영화빌딩 지하1층,"서울특별시 종로구 창신길 1, 영화빌딩 지하1층 (창신동)",3101,110-843,37.5720636506389,127.01020305654000,200830.570275099,452174.480627819
투뿔한우천국 2호점,한식,서울특별시,송파구,서울특별시 송파구 방이동 36-3,"서울특별시 송파구 올림픽로32길 9, 2층 (방이동)",5543,138-827,37.51542933869360,127.10919253000600,209581.539386194,445894.909949726
사당역 이자카야 야키니쿠 불티,한식,서울특별시,서초구,서울특별시 서초구 방배동 448-8,"서울특별시 서초구 청두곶길 3, 지층 (방배동)",6693,137-818,37.47718994451040,126.98532049860100,198630.965853249,441645.882940846
단칸,일식,서울특별시,중구,서울특별시 중구 을지로3가 296-26,"서울특별시 중구 충무로5길 6-1, 4층 (을지로3가)",4550,100-846,37.56541257444940,126.99234143856300,199252.790367029,451436.359861205
언더더씨 명동점,출장조리,서울특별시,중구,"서울특별시 중구 회현동1가 206 리더스뷰남산 지하1층 B105~B115, B130~B136호","서울특별시 중구 퇴계로 72 (회현동1가,리더스뷰남산 지하1층 B105~B115, B130~B136호)",4632,100-051,37.55932953560830,126.98064574536000,198219.475276246,450761.443791768
아따(ATTA),경양식,서울특별시,용산구,서울특별시 용산구 한남동 729-19,"서울특별시 용산구 한남대로27가길 8-3, 1층 (한남동)",4399,140-893,37.53790397523540,127.00309297296800,200202.630357143,448383.530801461
이가네푸디,기타,서울특별시,성동구,서울특별시 성동구 금호동3가 541,"서울특별시 성동구 금호산2길 29-5, 1층 101호 (금호동3가)",4729,133-805,37.54908565776630,127.0229218300980,201954.617427768,449624.656444104
만복수산,횟집,서울특별시,성동구,서울특별시 성동구 상왕십리동 811 텐즈힐,"서울특별시 성동구 마장로 137, 221동 1층 1101호 (상왕십리동, 텐즈힐)",4700,133-010,37.56956648780480,127.02473075246800,202113.869605464,451897.581865192
리치보드게임카페,기타,서울특별시,광진구,서울특별시 광진구 능동 220-11 3층,"서울특별시 광진구 능동로36길 9, 3층 (능동)",4985,143-847,37.55652395456780,127.07982587008900,206981.791418785,450452.83490606
컵 CUB,기타,서울특별시,송파구,서울특별시 송파구 오금동 133-23 미소빌딩,"서울특별시 송파구 마천로 196, 미소빌딩 104호, 105호 (오금동)",5738,138-859,37.502206898339300,127.14056618396300,212357.046873562,444431.201628351
룸스,호프/통닭,서울특별시,광진구,서울특별시 광진구 화양동 8-95 3층,"서울특별시 광진구 아차산로33길 21, 3층 (화양동)",5017,143-914,37.54151296597520,127.07020953661600,206133.435679018,448786.303093389
깐한베식 먹어보자,기타,서울특별시,동대문구,서울특별시 동대문구 이문동 288-48,"서울특별시 동대문구 휘경로 8, 2층 (이문동)",2440,130-830,37.5961891765687,127.06091833414900,205308.528329682,454853.510429139
빽다방 양원역점,기타,서울특별시,중랑구,서울특별시 중랑구 망우동 618-3,"서울특별시 중랑구 양원역로10길 25, 1층 104호 (망우동)",2057,131-230,37.60711170191010,127.10726853951900,209399.93927584,456069.290800972
맛닭꼬 중랑양원역점,호프/통닭,서울특별시,중랑구,서울특별시 중랑구 망우동 617-4,"서울특별시 중랑구 양원역로14길 14, 1층 (망우동)",2057,131-230,37.60748789159260,127.10717162994900,209391.335981635,456111.029590407
빅스타 피자(BIGSTAR PIZZA),기타,서울특별시,성북구,서울특별시 성북구 하월곡동 178,"서울특별시 성북구 월계로 6-1, 지상1층 (하월곡동)",2736,136-873,37.60950313061690,127.03123509758700,202686.980321281,456329.790745484
어피펄(APEOPER),기타,서울특별시,중랑구,서울특별시 중랑구 상봉동 276-12,"서울특별시 중랑구 상봉중앙로1다길 51, 제1층 제101호 (상봉동)",2082,131-856,37.6000535192342,127.09019293227800,207893.106243618,455284.421403302
지존피자,기타,서울특별시,강북구,서울특별시 강북구 번동 460-45,"서울특별시 강북구 한천로124길 13, 1층 좌측호 (번동)",1059,142-865,37.63753265489220,127.03227571234700,202777.808402624,459440.467161357
한시십일분,기타,서울특별시,동대문구,서울특별시 동대문구 휘경동 280-2,"서울특별시 동대문구 망우로 40, 지하1층 (휘경동)",2496,130-878,37.58882140119400,127.05794097311900,205046.120848873,454035.693335274
따뜻한 밥상(사회적 협동조합),기타,서울특별시,동대문구,서울특별시 동대문구 휘경동 187-20,"서울특별시 동대문구 이문로 58, 2층 (휘경동)",2443,130-876,37.59259155386420,127.05782174206700,205035.337540445,454454.086712019
배떡(장위점),기타,서울특별시,성북구,서울특별시 성북구 장위동 233-252,"서울특별시 성북구 장위로 78, 1층 (장위동)",2745,136-837,37.613988319117900,127.04526394020700,203925.289170413,456828.03875403
보석집,한식,서울특별시,성북구,서울특별시 성북구 보문동7가 112-1 한양빌딩,"서울특별시 성북구 보문로 44, 한양빌딩 1층 (보문동7가)",2859,136-087,37.5797411753648,127.02278544402400,201941.770914155,453026.691758481
시올돈,일식,서울특별시,강남구,서울특별시 강남구 신사동 584-1 유림아트홀,"서울특별시 강남구 압구정로28길 49, 유림아트홀 지상1층 108호 (신사동)",6031,135-892,37.523491090068000,127.02770807640200,202378.328280032,446784.387934893
냉삼집,한식,서울특별시,은평구,서울특별시 은평구 불광동 631-1 대호프라자아파트,"서울특별시 은평구 불광로 90, 상가동 1층 103호 (불광동, 대호프라자아파트)",3364,122-847,37.614963863142800,126.93286437163400,194002.701726955,456937.542510222
가온 가마순대국 감자탕,한식,서울특별시,도봉구,서울특별시 도봉구 도봉동 642 현대성우아파트,"서울특별시 도봉구 마들로 735-8, 상가동 102호 (도봉동, 현대성우아파트)",1322,132-754,37.6764791230964,127.04768308684700,204135.386163501,463763.240794805
돈뚱소,한식,서울특별시,도봉구,서울특별시 도봉구 방학동 461-2,"서울특별시 도봉구 방학로15길 19, 1층 (방학동)",1362,132-834,37.66078638747900,127.02439719918900,202081.861176179,462020.915038838
만나밥상,한식,서울특별시,노원구,서울특별시 노원구 하계동 251 하계1차청구아파트,"서울특별시 노원구 한글비석로 91, 상가205동 지하1층 1, 9, 10, 11호 (하계동, 하계1차청구아파트)",1791,139-872,37.63960034044800,127.07157740749400,206246.106103547,459671.8243378
진이순대국,한식,서울특별시,은평구,서울특별시 은평구 응암동 427-83,"서울특별시 은평구 응암로22길 11, 1층 (응암동)",3466,122-920,37.59400878166750,126.91937872000900,192810.183342054,454612.954313344
엘케이라운지,한식,서울특별시,은평구,서울특별시 은평구 수색동 291-25,"서울특별시 은평구 수색로 390-24, 1층 (수색동)",3486,122-875,37.59083116040320,126.88539460795100,189808.819468233,454263.456156479
팔당원조칼제비 현대시티몰 가든파이브점,한식,서울특별시,송파구,서울특별시 송파구 문정동 634 가든파이브라이프,"서울특별시 송파구 충민로 66, 가든파이브라이프 TB1095, 1096호 (문정동)",5838,138-960,37.47784123159180,127.12502361828500,210986.460698452,441725.293491662
어글리김밥,한식,서울특별시,서대문구,서울특별시 서대문구 남가좌동 388 DMC센트럴아이파크,"서울특별시 서대문구 증가로 150, 상가동 B305호 (남가좌동, DMC센트럴아이파크)",3670,120-120,37.57933721489250,126.920669724419,192922.795142276,452984.652487654
고바우통닭 신월점,호프/통닭,서울특별시,양천구,서울특별시 양천구 신월동 50-6 1층,"서울특별시 양천구 화곡로4길 34, 1층 (신월동)",7905,158-824,37.53668266945130,126.82862213158900,184784.362428247,448261.922027626
동그니네 손칼국수,분식,서울특별시,노원구,서울특별시 노원구 공릉동 513-1,"서울특별시 노원구 동일로 1048, 1층 중앙계단 왼쪽호 (공릉동)",1844,139-240,37.6239770802937,127.0739116507870,206453.453980476,457938.149449856
파인즈,기타,서울특별시,중구,서울특별시 중구 명동1가 1-3,"서울특별시 중구 명동길 73, 지하1층 106호 (명동1가)",4538,100-021,37.56458526361050,126.98622303891500,198712.290937471,451344.614137454
곰곰이 보드게임,기타,서울특별시,서초구,서울특별시 서초구 방배동 456-46 이수학원,"서울특별시 서초구 방배천로14길 16, 2층 (방배동)",6677,137-819,37.48193937850350,126.98369246637700,198487.075596295,442172.975238133
소망의빛,기타,서울특별시,서초구,서울특별시 서초구 우면동 791 서초 참병원빌딩,"서울특별시 서초구 양재대로 54, 1층 1-02호,1-03호 (우면동)",6768,137-140,37.45995750357970,127.02536502946700,202173.072903522,439733.691014751
콩시콩뼈순두부,한식,서울특별시,종로구,서울특별시 종로구 창신동 537-1,"서울특별시 종로구 종로 309, 1층 (창신동)",3106,110-854,37.57243493662720,127.01196782460500,200986.447020802,452215.701716963
탐미안,한식,서울특별시,강남구,서울특별시 강남구 개포동 168-3,"서울특별시 강남구 선릉로16길 4-8, 지상1층 101호 (개포동)",6325,135-802,37.483641352319900,127.06026530202600,205258.763288483,442363.374721325
리셉션,기타,서울특별시,서대문구,서울특별시 서대문구 연희동 92-20,"서울특별시 서대문구 증가로 16, 1층 (연희동)",3698,120-824,37.570031595084800,126.9313686659220,193866.975870814,451951.194436489
맘스피자랩 가든역삼점,기타,서울특별시,강남구,서울특별시 강남구 역삼동 706 위워크타워,"서울특별시 강남구 테헤란로 302, 위워크타워 지상1층 (역삼동)",6210,135-918,37.50258440916950,127.04346519622300,203772.107359734,444464.775412074
팥단지,한식,서울특별시,송파구,서울특별시 송파구 잠실동 207-14,"서울특별시 송파구 석촌호수로12길 12, 1층 101호 (잠실동)",5559,138-862,37.50940977536450,127.08521753286100,207462.828205869,445224.714790957
샤크로플,기타,서울특별시,송파구,서울특별시 송파구 가락동 141-4 푸른빌리지,"서울특별시 송파구 동남로9길 29, 1층 101호 (가락동, 푸른빌리지)",5825,138-808,37.49494743956310,127.12673562981300,211135.33344461,443623.855618066
항구,식육(숯불구이),서울특별시,송파구,서울특별시 송파구 삼전동 98-11,"서울특별시 송파구 백제고분로27길 13, 1층 (삼전동)",5605,138-839,37.5045849234872,127.09290240045300,208142.723676857,444689.912483712
카페 플로이(Cafe Floi),경양식,서울특별시,송파구,서울특별시 송파구 석촌동 230-3,"서울특별시 송파구 백제고분로34길 23, 1층 103호 (석촌동)",5680,138-845,37.50043755384190,127.09893665613800,208676.689040129,444230.196315018
라보아트 블루(LA BOITE BLEUE),경양식,서울특별시,종로구,서울특별시 종로구 옥인동 170 지하1층,"서울특별시 종로구 옥인길 32-3, 지하1층 (옥인동)",3034,110-035,37.58128309103350,126.96694678751600,197010.12050489,453198.119929732
908,기타,서울특별시,동작구,서울특별시 동작구 사당동 137-8,"서울특별시 동작구 동작대로27가길 26, 2층 (사당동)",7008,156-816,37.486707815565800,126.9808604974880,198236.739238171,442702.201182181
파스타 어때 상도점,경양식,서울특별시,동작구,서울특별시 동작구 상도1동 356-1,"서울특별시 동작구 상도로47길 13, 1층 (상도1동)",6970,156-836,37.50022089507180,126.95154405311900,195645.055117251,444202.768532551
소임식탁 앤 바오쯔,한식,서울특별시,종로구,서울특별시 종로구 숭인동 390-1 1층,"서울특별시 종로구 숭인동길 70-13, 1층 (숭인동)",3111,110-827,37.578484451050000,127.02257714447800,201923.40606958,452887.220420862
족의 한수 신림점,한식,서울특별시,관악구,서울특별시 관악구 신림동 110-30,"서울특별시 관악구 신림로26길 13, 1층 (신림동)",8838,151-927,37.473256761199,126.93437651064100,194125.082359749,441211.358426622
십앤칠,경양식,서울특별시,강남구,서울특별시 강남구 역삼동 726-9,"서울특별시 강남구 논현로80길 9, 지상1층 102호 (역삼동)",6223,135-921,37.49841479081560,127.03910284320700,203386.612117826,444001.885372624
송림정,한식,서울특별시,강동구,서울특별시 강동구 천호동 324-20,"서울특별시 강동구 천중로5길 12-6, 1층 (천호동)",5244,134-868,37.54642770164270,127.12486268927700,210962.192180305,449336.689542281
익선병아리김밥(명동점),한식,서울특별시,중구,서울특별시 중구 명동2가 3-3,"서울특별시 중구 명동10길 19-3, 지하1층 (명동2가)",4537,100-809,37.56327117137030,126.98562509914200,198659.446197759,451198.789321829
오이드킨(OIDKIN),일식,서울특별시,중구,서울특별시 중구 필동3가 18-17,"서울특별시 중구 서애로1길 2, 2층 (필동3가)",4623,100-273,37.56124791195460,126.99817287334800,199767.912826092,450974.150435656
호랭이 분식,분식,서울특별시,중구,서울특별시 중구 남창동 50-48,"서울특별시 중구 남대문시장2가길 2, 1층 (남창동)",4528,100-804,37.55958115454980,126.97674441661500,197874.820091883,450789.448583234
우미학 용산아이파크몰점,한식,서울특별시,용산구,서울특별시 용산구 한강로3가 40-999 용산역,"서울특별시 용산구 한강대로23길 55, 용산아이파크몰 에프엔비 7층 (한강로3가)",4377,140-780,37.529756979149700,126.9641635286510,196762.077394917,447480.039577359
인생맛죽 송파점,한식,서울특별시,송파구,서울특별시 송파구 문정동 37-2 동굴빌딩,"서울특별시 송파구 동남로6길 41-10, 동굴빌딩 1층 102호 (문정동)",5803,138-825,37.48678047222480,127.12588350600300,211061.192177607,442717.425478246
독립돈가,경양식,서울특별시,광진구,서울특별시 광진구 화양동 111-12 빌리브 인테라스 115호,"서울특별시 광진구 능동로 172, 빌리브 인테라스 1층 115호 (화양동)",5021,143-915,37.546195624035800,127.07401393827900,206469.210431409,449306.220747298
비에이치씨한강뚝섬3호점,호프/통닭,서울특별시,광진구,서울특별시 광진구 자양동 99-2 뚝섬 3호 매점 2층,"서울특별시 광진구 강변북로 2180, 뚝섬 3호 매점 2층 (자양동)",,143-845,37.53130284469910,127.06325798142900,205519.90777428,447652.795355358
랭보,기타,서울특별시,광진구,서울특별시 광진구 자양동 4-11 2층,"서울특별시 광진구 동일로18길 96, 2층 (자양동)",5075,143-841,37.538550749660100,127.06792340549700,205931.654297134,448457.421711072
수피 카페(SUPY CAFE),경양식,서울특별시,중구,서울특별시 중구 명동2가 32-25,"서울특별시 중구 명동8길 21, 3층 (명동2가)",4536,100-809,37.56302739188780,126.98487461725400,198593.143891753,451171.746534572
또와 치킨 호프,호프/통닭,서울특별시,중랑구,서울특별시 중랑구 묵동 305-1,"서울특별시 중랑구 공릉로 64, 1층 (묵동)",2031,131-848,37.61632488704670,127.07967497986300,206962.887956695,457089.340503721
헬키 푸키 방이점,분식,서울특별시,송파구,서울특별시 송파구 방이동 47 새천년잠실헤리츠오피스텔,"서울특별시 송파구 위례성대로2길 8, 1층 105,106호 (방이동)",5544,138-828,37.51665915211600,127.11318271729800,209934.09577329,446031.802965689
공릉닭한마리,한식,서울특별시,동대문구,서울특별시 동대문구 장안동 310-2,"서울특별시 동대문구 장한로 162, 1층 (장안동)",2523,130-839,37.57510291602650,127.07228549816300,206314.04486985,452514.128169539
석화집,한식,서울특별시,용산구,서울특별시 용산구 한강로1가 223-2,"서울특별시 용산구 한강대로52길 29-9, 2층 (한강로1가)",4382,140-011,37.531921556269700,126.97313795652200,197555.305860001,447719.984019591
파파이스 광화문점,"외국음식전문점(인도,태국등)",서울특별시,종로구,서울특별시 종로구 신문로1가 24 광화문 고려빌딩,"서울특별시 종로구 새문안로 91, 광화문 고려빌딩 1층 (신문로1가)",3182,110-796,37.57069170022200,126.97476209089100,197700.034013631,452022.503467072
청춘종합어시장,횟집,서울특별시,성북구,서울특별시 성북구 동선동1가 120-2 1층,"서울특별시 성북구 동소문로 122, 1층 (동선동1가)",2845,136-051,37.59390232553940,127.01852345401700,201565.052231048,454598.171237155
꼬치의 품격(방학점),기타,서울특별시,도봉구,서울특별시 도봉구 방학동 718-7 이에스에이아파트,"서울특별시 도봉구 마들로 657, 1층 128호 (방학동, 이에스에이아파트)",1332,132-854,37.66887468306260,127.04553392291100,203946.218925234,462919.219463289
통갈비살집,한식,서울특별시,도봉구,서울특별시 도봉구 방학동 690-1,"서울특별시 도봉구 방학로6길 18, 1층 (방학동)",1344,132-851,37.66402622811910,127.03728261917800,203218.536561552,462380.830943999
직화 욱이 짬뽕,중국식,서울특별시,노원구,서울특별시 노원구 상계동 366-3 노원위너스빌딩 101호,"서울특별시 노원구 상계로 97, 노원위너스빌딩 101호 (상계동)",1691,139-816,37.657315480654100,127.06567782007600,205724.107695017,461637.438212638
혼미,기타,서울특별시,은평구,서울특별시 은평구 녹번동 193,"서울특별시 은평구 은평로 193-2, 1층 (녹번동)",3384,122-835,37.602319265099700,126.92893083299400,193654.378125665,455534.538697906
국수소반,한식,서울특별시,강서구,서울특별시 강서구 마곡동 798-5 에이스타워Ⅱ1층 121호,"서울특별시 강서구 마곡중앙로 59-21, 에이스타워Ⅱ 1층 121호 (마곡동)",7807,157-210,37.55898105139510,126.82423367425900,184401.194407775,450737.230730038
밍기적,기타,서울특별시,서대문구,서울특별시 서대문구 북가좌동 340-12,"서울특별시 서대문구 불광천길 274, 1층 (북가좌동)",3676,120-815,37.5864685729826,126.91330062913300,192272.684567274,453776.648081767
본죽엔비빔밥 장지동 파운타운점,한식,서울특별시,송파구,서울특별시 송파구 장지동 841-6 북일PLAZA,"서울특별시 송파구 충민로2길 34, 북일PLAZA 1층 106호 (장지동)",5816,138-888,37.477009217503800,127.12752021252200,211207.386328242,441633.255096118
헨나호텔 레스토랑,뷔페식,서울특별시,중구,서울특별시 중구 충무로2가 12-5,"서울특별시 중구 명동8가길 59, 1층 (충무로2가)",4537,100-860,37.56222667044490,126.98832886466800,198898.282009528,451082.839302118
서울카레 공덕점,일식,서울특별시,마포구,서울특별시 마포구 공덕동 242-84,"서울특별시 마포구 마포대로8길 29, 지하1층 제1호 (공덕동)",4210,121-803,37.54628523951140,126.95478408509300,195934.021927719,449314.642108823
수라청 가든,한식,서울특별시,마포구,서울특별시 마포구 마포동 33-1 대농빌딩,"서울특별시 마포구 마포대로 25, 대농빌딩 지1층 (마포동)",4167,121-050,37.53962466207800,126.9448016792210,195051.53369717,448575.956518546
홍두깨칼국수,한식,서울특별시,양천구,서울특별시 양천구 신월동 429-1 성우아파트,"서울특별시 양천구 오목로7길 25, 상가동 1층 104호 (신월동, 성우아파트)",7930,158-832,37.52424387828270,126.84106275147000,185881.416520322,446879.576496211
본죽&비빔밥 목2동점,한식,서울특별시,양천구,서울특별시 양천구 목동 497-19 윤경675,"서울특별시 양천구 목동중앙본로 103, 윤경675 1층 101호 (목동)",7948,158-807,37.54509476370720,126.8706069494030,188495.923381638,449189.497727032
참맛나 치킨,호프/통닭,서울특별시,강서구,서울특별시 강서구 방화동 249-259,"서울특별시 강서구 방화동로14길 4, 1층 (방화동)",7606,157-846,37.56917489261370,126.81303613336700,183414.203531011,451870.424994005
이가,한식,서울특별시,노원구,서울특별시 노원구 하계동 273 장미아파트,"서울특별시 노원구 섬밭로 196, 1층 101-10호 (하계동, 장미아파트)",1863,139-873,37.633913029069500,127.06788691220700,205920.87114808,459040.420031177
더 하루(The Haru),한식,서울특별시,강서구,서울특별시 강서구 마곡동 800-4 발산W타워 208호,"서울특별시 강서구 공항대로 222, 발산W타워 2층 208호 (마곡동)",7806,157-210,37.558889547617400,126.83219136890700,185104.20167753,450725.785084054
카페 미뇽,기타,서울특별시,중구,서울특별시 중구 명동2가 86,"서울특별시 중구 남대문로 68, 1층 (명동2가)",4535,100-810,37.56331918472930,126.98221917234200,198358.566988241,451204.171702321
인생피자 상계점,경양식,서울특별시,노원구,서울특별시 노원구 상계동 135-31,"서울특별시 노원구 한글비석로24라길 92, 1층 일부호 (상계동)",1657,139-813,37.66613305686760,127.06957667037200,206067.381845011,462616.242244418
된장마을 고깃집(강서화곡점),한식,서울특별시,강서구,서울특별시 강서구 화곡동 840-11,"서울특별시 강서구 강서로10길 185, 1층 (화곡동)",7784,157-903,37.5315823161416,126.85814795946200,187392.750730948,447691.538113518
호시카츠 롯데몰 김포공항점,일식,서울특별시,강서구,"서울특별시 강서구 방화동 886 김포공항, 롯데몰, 스카이시티 GF층","서울특별시 강서구 하늘길 38, 김포공항, 롯데몰, 스카이시티 GF층 (방화동)",7505,157-220,37.56526418598820,126.80297802946400,182524.823835629,451438.25089679
패밀리마라탕,중국식,서울특별시,구로구,서울특별시 구로구 신도림동 437-1 태영프라자,"서울특별시 구로구 경인로59길 8, 태영프라자 202호 (신도림동)",8210,152-888,37.50664550738070,126.88337442741700,189618.752905327,444921.078748984
김밥을 담다,분식,서울특별시,구로구,서울특별시 구로구 구로동 81-3 스페스큐브,"서울특별시 구로구 가마산로 232, 지하1층 B111호 (구로동, 스페스큐브)",8307,152-840,37.49387223099770,126.88686746553200,189925.846221375,443503.181948403
최배달떡순튀 구로점,분식,서울특별시,구로구,서울특별시 구로구 구로동 107-1 대림역대성스카이렉스,"서울특별시 구로구 공원로 27, 1층 107호 (구로동, 대림역대성스카이렉스)",8298,152-843,37.49963241631230,126.89094599589100,190287.224607343,444141.990714665
덜덜치킨,호프/통닭,서울특별시,금천구,서울특별시 금천구 독산동 881-21 트라움팰리스,"서울특별시 금천구 남부순환로126길 28, 101호 (독산동, 트라움팰리스)",8547,153-818,37.47908222128910,126.90618948785100,191632.691036104,441859.968881566
또이바엠,"외국음식전문점(인도,태국등)",서울특별시,금천구,서울특별시 금천구 가산동 345-9 SK트윈테크타워,"서울특별시 금천구 가산디지털1로 119, SK트윈테크타워 1층 A101-1호 (가산동)",8589,153-802,37.47584628619810,126.88293715199500,189575.815287955,441503.181731081
필댐굿(feel damn good),기타,서울특별시,영등포구,서울특별시 영등포구 당산동3가 404,"서울특별시 영등포구 당산로29길 7, 1층 (당산동3가)",7261,150-804,37.52607785834390,126.89440924030500,190596.746952945,447076.433833561
999맥주집,호프/통닭,서울특별시,영등포구,서울특별시 영등포구 대림동 1019-3,"서울특별시 영등포구 대림로 107-2, 2층 (대림동)",7443,150-824,37.49140721689200,126.9026727649340,191323.099188643,443228.052660599
올라와(Holawa),"외국음식전문점(인도,태국등)",서울특별시,용산구,서울특별시 용산구 한강로1가 237-3,"서울특별시 용산구 한강대로 180, 2층 (한강로1가)",4382,140-011,37.53466933644170,126.97342331095400,197580.613453679,448024.913713437
일루와 포차,기타,서울특별시,동작구,서울특별시 동작구 노량진동 16-1 노량진 드림스퀘어 복합빌딩,"서울특별시 동작구 노들로2길 7, 노량진 드림스퀘어 복합빌딩 D동 1층 107호 (노량진동)",6900,156-800,37.51452271822880,126.93938612391300,194571.152376388,445790.549860682
넷길이 콩나물국밥,한식,서울특별시,성북구,서울특별시 성북구 삼선동5가 291-2 1층,"서울특별시 성북구 보문로 149-1, 1층 (삼선동5가)",2862,136-045,37.58821747553510,127.01745542151900,201470.852541759,453967.267102563
포케올데이 성북구청점,"외국음식전문점(인도,태국등)",서울특별시,성북구,서울특별시 성북구 삼선동5가 324 선치과의원,"서울특별시 성북구 보문로 156-2, 선치과의원 1층 (삼선동5가)",2848,136-045,37.58893133657670,127.01720861970300,201449.043452148,454046.485298831
멜로망스,한식,서울특별시,강서구,서울특별시 강서구 화곡동 832-11,"서울특별시 강서구 곰달래로49길 23, 1층 일부호 (화곡동)",7748,157-901,37.53295006822400,126.85761447876300,187345.834034396,447843.397217976
열정국밥,한식,서울특별시,성동구,서울특별시 성동구 금호동3가 541,"서울특별시 성동구 금호산2길 29-5, 1층 101호 (금호동3가)",4729,133-805,37.54908565776630,127.0229218300980,201954.617427768,449624.656444104
카페이지,한식,서울특별시,강서구,서울특별시 강서구 화곡동 348-4,"서울특별시 강서구 강서로17길 15, 1층 (화곡동)",7770,157-881,37.533207713434500,126.8449175994110,186223.781117172,447873.77373698
사거리 포차,한식,서울특별시,성북구,서울특별시 성북구 장위동 238-202,"서울특별시 성북구 장위로 103, 1층 (장위동)",2756,136-833,37.61399202095630,127.04824799305700,204188.72200424,456828.57853571
도킹 어라운드,기타,서울특별시,마포구,서울특별시 마포구 서교동 367-6 서진빌딩,"서울특별시 마포구 잔다리로 20, 서진빌딩 5층 (서교동)",4042,121-893,37.55114947559120,126.92083889020800,192935.074503865,449856.46553063
잉치킨 수색아이파크점,기타,서울특별시,은평구,서울특별시 은평구 수색동 341-6,"서울특별시 은평구 수색로 322, DMC SK VIEW I PARK FORET 상가2동 1층 101호 (수색동)",3488,122-877,37.5859342663757,126.89289538056400,190470.571086776,453719.226761577
버팔로스팟(Buffalo Spot),"외국음식전문점(인도,태국등)",서울특별시,서초구,서울특별시 서초구 방배동 941-11 남포빌딩,"서울특별시 서초구 방배중앙로 62, 남포빌딩 103호 (방배동)",6673,137-844,37.48543133434380,126.99058708588600,199096.851235827,442560.406070716
합리적인 치킨,호프/통닭,서울특별시,노원구,서울특별시 노원구 상계동 169-206,서울특별시 노원구 한글비석로24길 21 (상계동),1668,139-815,37.66212440862950,127.0719126196450,206273.793438841,462171.5231343
제남,한식,서울특별시,관악구,서울특별시 관악구 봉천동 710-6,"서울특별시 관악구 당곡길 46, 1층 (봉천동)",8710,151-821,37.491356957826300,126.9285266804650,193609.227774884,443220.406055263
도시섬(DOSEESUM),경양식,서울특별시,용산구,서울특별시 용산구 이태원동 129-10,"서울특별시 용산구 이태원로26길 28, 2층 (이태원동)",4391,140-865,37.53347182615740,126.99354507466300,199358.843239784,447891.691634883
시온면옥,분식,서울특별시,송파구,서울특별시 송파구 오금동 42-1,"서울특별시 송파구 마천로 70-6, 1층 101호 (오금동)",5659,138-856,37.507651957473100,127.12804588893800,211249.281509134,445033.898559705
소풍,분식,서울특별시,강서구,서울특별시 강서구 내발산동 665-24 장원빌딩,"서울특별시 강서구 우장산로 7, 장원빌딩 1층 105호 (내발산동)",7652,157-280,37.55504544835060,126.83801473428600,185617.930832227,450298.274048489
훼미리 치킨,호프/통닭,서울특별시,송파구,서울특별시 송파구 문정동 150 올림픽훼밀리타운,"서울특별시 송파구 중대로 24, 1동 1층 129호 (문정동, 올림픽훼밀리타운)",5834,138-885,37.48871377892890,127.11440347259800,210045.748264305,442930.687284628
볼륨엘피바,라이브카페,서울특별시,강남구,서울특별시 강남구 신사동 663-23 한주빌딩,"서울특별시 강남구 선릉로157길 14, 한주빌딩 지하1층 (신사동)",6018,135-897,37.52636985388860,127.03884744568600,203362.776235296,447104.200510418
맘스터치랩 가든역삼점,기타,서울특별시,강남구,서울특별시 강남구 역삼동 706 위워크타워,"서울특별시 강남구 테헤란로 302, 위워크타워 지상1층 (역삼동)",6210,135-918,37.50258440916950,127.04346519622300,203772.107359734,444464.775412074
푸줏간삼겹돼지고기배달 왕십리뉴타운점,기타,서울특별시,성동구,서울특별시 성동구 하왕십리동 1070 센트라스,"서울특별시 성동구 왕십리로 410, A동 1층 106호 (하왕십리동, 센트라스)",4701,133-020,37.566313806691200,127.02766215874500,202372.912023599,451536.680876573
도미노피자 염창점,경양식,서울특별시,강서구,서울특별시 강서구 염창동 249-10 103호,"서울특별시 강서구 양천로 683, 1층 103호 (염창동)",7540,157-861,37.551181681065900,126.87230860146900,188647.207494149,449864.793457439
미(味)요일,한식,서울특별시,양천구,서울특별시 양천구 목동 404-108,"서울특별시 양천구 신목로2길 62, 2층 (목동)",8007,158-806,37.52338956746450,126.87733036360600,189086.853406906,446779.943272419
리파인 문래점,기타,서울특별시,영등포구,서울특별시 영등포구 문래동2가 14-25 성문빌딩,"서울특별시 영등포구 도림로 435, 성문빌딩 지하1층 (문래동2가)",7290,150-092,37.51446808081070,126.89453008015800,190605.971864311,445788.019836812
장'스 별미덮밥,기타,서울특별시,동대문구,서울특별시 동대문구 답십리동 494-1 한일노벨리아,"서울특별시 동대문구 천호대로 289, 한일노벨리아 106호 (답십리동)",2604,130-805,37.567103613952700,127.05330493761500,204638.059317208,451625.287385877
연남골목냉면,한식,서울특별시,마포구,서울특별시 마포구 서교동 333-37,"서울특별시 마포구 와우산로29마길 7-8, 지1층 우측호 (서교동)",4053,121-836,37.55555946762210,126.92691267566200,193472.105654798,450345.430511468
광년 양꼬치,중국식,서울특별시,중구,서울특별시 중구 신당동 235-2,"서울특별시 중구 다산로39길 45, 지하1층 2호 (신당동)",4612,100-888,37.56477909419860,127.01341388518900,201114.290700306,451366.099667075
구름계란덮밥 강동점,한식,서울특별시,강동구,서울특별시 강동구 천호동 292-6,"서울특별시 강동구 상암로 94, 2층 201-2호 (천호동)",5320,134-867,37.547691304864500,127.13334867621700,211711.817509619,449477.94259207
정일식품,기타,서울특별시,동대문구,서울특별시 동대문구 전농동 295-52,"서울특별시 동대문구 전농로 147, 에프동 103호 (전농동)",2547,130-854,37.578163073819100,127.05708118561100,204970.90163598,452852.821037366
시월생커피,기타,서울특별시,종로구,서울특별시 종로구 숭인동 31-1,"서울특별시 종로구 동망산1길 2, 1층 (숭인동)",3108,110-862,37.579783629629400,127.01773883579400,201496.049834905,453031.310856471
하루집밥,한식,서울특별시,송파구,서울특별시 송파구 송파동 194-4,"서울특별시 송파구 송파대로36길 5-14, 1층 (송파동)",5676,138-854,37.50075764647140,127.11248393292600,209874.42098368,444267.053793451
아라치 송파점,한식,서울특별시,송파구,서울특별시 송파구 송파동 97-12,"서울특별시 송파구 가락로18길 6-1, 1층 (송파동)",5676,138-854,37.50191883935770,127.11128465460300,209768.236703553,444395.792303569
왕포수산,한식,서울특별시,서대문구,서울특별시 서대문구 연희동 192-10 1층,"서울특별시 서대문구 연희맛로 5, 1층 (연희동)",3707,120-825,37.56633419867190,126.92850091489500,193613.345324312,451541.061489537
라복궁,중국식,서울특별시,금천구,서울특별시 금천구 가산동 143-6 제2동 지상1층 113호,"서울특별시 금천구 가산로9길 12-8, 2동 지상1층 113호 (가산동)",8515,153-801,37.47765043425210,126.89094347235500,190284.154860389,441702.540500531
파이널나인 마곡점,경양식,서울특별시,강서구,"서울특별시 강서구 마곡동 797-9 매그넘797(지상4층), 412,413호","서울특별시 강서구 마곡중앙6로 70, 매그넘797 4층 412,413호 (마곡동)",7803,157-210,37.56007416120030,126.83486620777800,185340.743671151,450856.828690522
스매쉬버거,기타,서울특별시,마포구,서울특별시 마포구 상암동 2-255 상암동단독주택및근린생활,"서울특별시 마포구 월드컵북로42가길 18, 상암동단독주택및근린생활 1층 (상암동)",3930,121-830,37.57542349580270,126.89715451828800,190845.423450945,452552.352337223
메리고라운드,분식,서울특별시,송파구,서울특별시 송파구 잠실동 40-1 롯데월드,"서울특별시 송파구 올림픽로 240, 롯데월드 어드벤처 회전목마 인근 1층 (잠실동)",5554,138-721,37.5114832268089,127.09796328419000,208589.363343145,445455.90405262
신사이제,일식,서울특별시,강남구,서울특별시 강남구 신사동 544-5,"서울특별시 강남구 도산대로15길 32-10, 지상1층 (신사동)",6033,135-889,37.521103486137600,127.02355808624700,202011.586559409,446519.325367229
투두온(TO DO ON),한식,서울특별시,영등포구,서울특별시 영등포구 양평동2가 31-5,"서울특별시 영등포구 선유서로25길 7, 1층 (양평동2가)",7275,150-102,37.524558342509900,126.88512122977600,189775.62671374,446908.773540895
오토김밥 동대문점,기타,서울특별시,동대문구,서울특별시 동대문구 장안동 309-3,"서울특별시 동대문구 장한로 146, 1층 (장안동)",2523,130-839,37.57358362589560,127.07218008589,206304.862287075,452345.515469322
참존숯불바베큐(중랑역점),호프/통닭,서울특별시,중랑구,서울특별시 중랑구 상봉동 130-129,"서울특별시 중랑구 망우로32길 12, 1층 (상봉동)",2120,131-861,37.59355694763500,127.07640014321600,206675.827854781,454562.381448629
죽을담다 목동점,기타,서울특별시,양천구,서울특별시 양천구 목동 730-18,"서울특별시 양천구 목동중앙남로9길 41, 2층 (목동)",7959,158-814,37.538066445437700,126.86412759362100,187922.26264924,448410.335423139
크레뮤 클럽,기타,서울특별시,송파구,서울특별시 송파구 송파동 40,"서울특별시 송파구 백제고분로45길 21, 2층 (송파동)",5622,138-849,37.51001619128230,127.109169406753,209580.187252241,445294.181118349
샵일리터 본점,기타,서울특별시,양천구,서울특별시 양천구 신정동 887-1 1층,"서울특별시 양천구 신정중앙로19길 2, 1층 (신정동)",7938,158-856,37.5271203278834,126.86173831933900,187709.326277346,447195.890189691
대포찜닭,한식,서울특별시,서대문구,서울특별시 서대문구 창천동 33-27 대성빌딩 3층,"서울특별시 서대문구 연세로 27-1, 대성빌딩 3층 (창천동)",3788,120-834,37.55831636677000,126.93667284629600,194334.618853084,450650.747799211
용철이떡갈비,한식,서울특별시,강북구,서울특별시 강북구 미아동 1346-1,"서울특별시 강북구 솔샘로 244, 1층 (미아동)",1194,142-819,37.619879052657700,127.01956041366000,201656.043914797,457481.012689024
달지기,기타,서울특별시,송파구,서울특별시 송파구 가락동 141-2,"서울특별시 송파구 동남로9길 31-1, 1층 (가락동)",5825,138-808,37.49517587984990,127.12672967952000,211134.773398654,443649.206106511
샐러드 빈,기타,서울특별시,중구,서울특별시 중구 쌍림동 239-2,"서울특별시 중구 퇴계로56길 22, 1층 (쌍림동)",4615,100-400,37.56303650860680,127.00548600998800,200413.964364692,451172.649400355
오늘 와인 한잔 상암점,호프/통닭,서울특별시,마포구,서울특별시 마포구 상암동 14-11,"서울특별시 마포구 월드컵북로48길 38 (상암동, 상암주택B 1층)",3930,121-830,37.577471184817000,126.8954910567140,190698.751436889,452779.761371306
격식,한식,서울특별시,강동구,서울특별시 강동구 성내동 555-9,"서울특별시 강동구 올림픽로48길 31-7, 1,2층 (성내동)",5398,134-851,37.52932609189430,127.12198782555500,210710.614638389,447438.491073229
빽돈 종로3가점,식육(숯불구이),서울특별시,종로구,서울특별시 종로구 낙원동 65-1,"서울특별시 종로구 삼일대로 432, 1층 (낙원동)",3133,110-320,37.57341529775510,126.98819273486100,198886.422686721,452324.514879443
홍미단,분식,서울특별시,강남구,서울특별시 강남구 삼성동 141 성원타워,"서울특별시 강남구 선릉로 514, 성원타워 지하1층 115호 (삼성동)",6162,135-876,37.50581872431620,127.0489128642370,204253.562094788,444823.936628416
천호숯불바베큐,호프/통닭,서울특별시,강동구,서울특별시 강동구 천호동 411-54,"서울특별시 강동구 천호대로157길 34, 1층 (천호동)",5335,134-871,37.539389393889000,127.12771391200000,211215.180902482,448555.942298434
대성갈비,한식,서울특별시,송파구,서울특별시 송파구 방이동 105-4 지상1층,"서울특별시 송파구 올림픽로32길 58, 지상1층 (방이동)",5550,138-829,37.51229339483600,127.11242806654900,209867.96304211,445547.231508701
포앤쿡,기타,서울특별시,동작구,서울특별시 동작구 신대방동 498-51,서울특별시 동작구 여의대방로 80 (신대방동),7063,156-851,37.49678168740140,126.91559931259400,192466.669256524,443823.371961919
봉우리,한식,서울특별시,강남구,서울특별시 강남구 역삼동 670-20,서울특별시 강남구 논현로94길 25-3 (역삼동),6140,135-915,37.50323934550120,127.03816221484400,203303.232287591,444537.257778859
카페엘(cafe Aile),까페,서울특별시,마포구,서울특별시 마포구 상암동 1622,"서울특별시 마포구 성암로 189 (상암동, 중소기업DMC타워 지하1층 11호)",3929,121-904,37.5769360150029,126.89787540422200,190909.280217808,452720.136638715
연희김밥,일식,서울특별시,영등포구,서울특별시 영등포구 당산동5가 9-3 효성해링턴 1층 102동 108호,"서울특별시 영등포구 당산로 205 (당산동5가, 효성해링턴 1층 102동 108호 )",7213,150-045,37.532976798869500,126.90010311642800,191100.814966366,447841.495026035
강시떡볶이 영등포역점,한식,서울특별시,영등포구,서울특별시 영등포구 영등포동 592-22,"서울특별시 영등포구 영신로 22-1, 1층 (영등포동)",7307,150-898,37.51389666287400,126.90876920352200,191864.617457296,445723.280027991
달빛,한식,서울특별시,강북구,서울특별시 강북구 수유동 174-24,서울특별시 강북구 한천로140길 28 (수유동),1054,142-876,37.64127495148860,127.02795849509200,202396.683219353,459855.659890662
코시,한식,서울특별시,강남구,서울특별시 강남구 도곡동 417-9,"서울특별시 강남구 논현로38길 32-7, 지상1층 (도곡동)",6296,135-854,37.48530933189050,127.04473957864300,203885.672708484,442547.724594247
혜화동돈까스,한식,서울특별시,영등포구,서울특별시 영등포구 양평동3가 13 양평동 이노플렉스 지상1층105호(전체),"서울특별시 영등포구 양산로 57-5 (양평동3가,양평동 이노플렉스 지상1층105호(전체))",7271,150-103,37.52554840381910,126.88931915444300,190146.79444215,447018.198264889
사이카이,분식,서울특별시,강남구,서울특별시 강남구 신사동 510-3 1층,"서울특별시 강남구 강남대로156길 13 (신사동,1층)",6034,135-887,37.51845242232310,127.0202448375180,201718.789410144,446225.056455264
황비홍 마라탕,한식,서울특별시,강남구,서울특별시 강남구 논현동 192-1 지하1층103호,"서울특별시 강남구 논현로113길 7 (논현동,지하1층103호)",6122,135-826,37.5084110350075,127.03253356393000,202805.403854464,445111.004761705
흑염소와오리전문점(신내점),한식,서울특별시,중랑구,서울특별시 중랑구 신내동 661 신내대명아파트,"서울특별시 중랑구 봉화산로 189, 신내대명아파트 지하1층 B05호 (신내동)",2043,131-873,37.607745788051100,127.094033365713,208231.356512091,456138.417214882
네네치킨&봉구스밥버거 신림남부점,통닭(치킨),서울특별시,관악구,서울특별시 관악구 신림동 542-15 지상1층,"서울특별시 관악구 남부순환로143길 16 (신림동,지상1층)",8767,151-876,37.482262245403,126.91088521691700,192048.316178534,442212.464622545
이바우국밥 천호점,한식,서울특별시,강동구,서울특별시 강동구 천호동 395-15,"서울특별시 강동구 구천면로36길 19, 지1층 102호 (천호동)",5330,134-863,37.54294489119210,127.13272775126000,211657.69251581,448951.127001303
