[
  {
    "name": "매취랑 동대문점",
    "category": "한식",
    "city": "서울특별시",
    "district": "중구",
    "parcelAddress": "서울특별시 중구 을지로6가 18-137",
    "roadAddress": "서울특별시 중구 장충단로 249-10, 2층 (을지로6가)",
    "districtPostal": "04564",
    "latitude": 37.56749810168001,
    "longitude": 127.00775643133176,
    "xCoordinate": 200614.497822789,
    "yCoordinate": 451667.793301393
  },
  {
    "name": "BLUE BOX(블루박스)",
    "category": "기타",
    "city": "서울특별시",
    "district": "노원구",
    "parcelAddress": "서울특별시 노원구 공릉동 334-3",
    "roadAddress": "서울특별시 노원구 공릉로 127 (공릉동)",
    "districtPostal": "01837",
    "latitude": 37.62165796137516,
    "longitude": 127.0788353880464,
    "xCoordinate": 206888.278816502,
    "yCoordinate": 457681.129401558
  },
  {
    "name": "치카바",
    "category": "일식",
    "city": "서울특별시",
    "district": "송파구",
    "parcelAddress": "서울특별시 송파구 가락동 84-6",
    "roadAddress": "서울특별시 송파구 송이로20길 12-1, 1층 101호 (가락동)",
    "districtPostal": "05712",
    "latitude": 37.49607930028218,
    "longitude": 127.11996353057827,
    "xCoordinate": 210536.379531854,
    "yCoordinate": 443748.684430769
  },
  {
    "name": "오고보",
    "category": "경양식",
    "city": "서울특별시",
    "district": "송파구",
    "parcelAddress": "서울특별시 송파구 방이동 57 One57빌당",
    "roadAddress": "서울특별시 송파구 올림픽로34길 27-23, One57빌딩 2층 201호 (방이동)",
    "districtPostal": "05547",
    "latitude": 37.51533319596562,
    "longitude": 127.11206444574388,
    "xCoordinate": 209835.419891828,
    "yCoordinate": 445884.536808795
  },
  {
    "name": "또봉이통닭 가락본동점",
    "category": "호프/통닭",
    "city": "서울특별시",
    "district": "송파구",
    "parcelAddress": "서울특별시 송파구 가락동 46-11 문종빌딩",
    "roadAddress": "서울특별시 송파구 오금로36길 64, 문종빌딩 1층 (가락동)",
    "districtPostal": "05706",
    "latitude": 37.49903822682116,
    "longitude": 127.12176128291298,
    "xCoordinate": 210694.913956667,
    "yCoordinate": 444077.25458923
  },
  {
    "name": "대치동그집1981",
    "category": "한식",
    "city": "서울특별시",
    "district": "강동구",
    "parcelAddress": "서울특별시 강동구 성내동 537-3",
    "roadAddress": "서울특별시 강동구 성내로5길 31, 1층 101호 (성내동)",
    "districtPostal": "05392",
    "latitude": 37.53146195576241,
    "longitude": 127.12389941858288,
    "xCoordinate": 210879.251613939,
    "yCoordinate": 447675.739670456
  },
  {
    "name": "왔따쪽갈비",
    "category": "한식",
    "city": "서울특별시",
    "district": "강동구",
    "parcelAddress": "서울특별시 강동구 천호동 46-28",
    "roadAddress": "서울특별시 강동구 천중로43길 55, 1층 102호 (천호동)",
    "districtPostal": "05315",
    "latitude": 37.54375963473095,
    "longitude": 127.14131467204292,
    "xCoordinate": 212416.334313854,
    "yCoordinate": 449042.643309731
  },
  {
    "name": "서촌 곳간",
    "category": "한식",
    "city": "서울특별시",
    "district": "종로구",
    "parcelAddress": "서울특별시 종로구 필운동 146-1 아이에스빌딩 1층",
    "roadAddress": "서울특별시 종로구 필운대로 6-1, 아이에스빌딩 1층 (필운동)",
    "districtPostal": "03041",
    "latitude": 37.57685808979361,
    "longitude": 126.96941767912502,
    "xCoordinate": 197228.18297893,
    "yCoordinate": 452706.97234696
  },
  {
    "name": "컴플리트커피",
    "category": "기타",
    "city": "서울특별시",
    "district": "중랑구",
    "parcelAddress": "서울특별시 중랑구 면목동 198-27",
    "roadAddress": "서울특별시 중랑구 중랑천로 67, 1층 (면목동)",
    "districtPostal": "02118",
    "latitude": 37.59138463232615,
    "longitude": 127.07291283123882,
    "xCoordinate": 206368.067800804,
    "yCoordinate": 454321.062421746
  },
  {
    "name": "복림문",
    "category": "중국식",
    "city": "서울특별시",
    "district": "중구",
    "parcelAddress": "서울특별시 중구 황학동 450",
    "roadAddress": "서울특별시 중구 퇴계로87길 43-15, 1층 (황학동)",
    "districtPostal": "04576",
    "latitude": 37.56768972777359,
    "longitude": 127.02030009022025,
    "xCoordinate": 201722.540160044,
    "yCoordinate": 451689.215255174
  },
  {
    "name": "카페 라",
    "category": "기타",
    "city": "서울특별시",
    "district": "중구",
    "parcelAddress": "서울특별시 중구 장충동2가 202",
    "roadAddress": "서울특별시 중구 동호로 249, 지하1층 (장충동2가)",
    "districtPostal": "04605",
    "latitude": 37.55695240601038,
    "longitude": 127.00604773709046,
    "xCoordinate": 200463.625303538,
    "yCoordinate": 450497.460903907
  },
  {
    "name": "역전우동0410 숙대입구점",
    "category": "일식",
    "city": "서울특별시",
    "district": "용산구",
    "parcelAddress": "서울특별시 용산구 청파동3가 22-2",
    "roadAddress": "서울특별시 용산구 청파로 277, 1층 (청파동3가)",
    "districtPostal": "04313",
    "latitude": 37.54452694886303,
    "longitude": 126.97051294524984,
    "xCoordinate": 197323.765241203,
    "yCoordinate": 449118.950056912
  },
  {
    "name": "끼(KKI)",
    "category": "외국음식전문점(인도,태국등)",
    "city": "서울특별시",
    "district": "용산구",
    "parcelAddress": "서울특별시 용산구 용산동2가 1-510",
    "roadAddress": "서울특별시 용산구 신흥로 97-6, 2층 (용산동2가)",
    "districtPostal": "04337",
    "latitude": 37.54538847456255,
    "longitude": 126.98487737005703,
    "xCoordinate": 198593.055505142,
    "yCoordinate": 449214.246833049
  },
  {
    "name": "마라공방",
    "category": "중국식",
    "city": "서울특별시",
    "district": "구로구",
    "parcelAddress": "서울특별시 구로구 고척동 76-153",
    "roadAddress": "서울특별시 구로구 중앙로6길 50, 2층 (고척동)",
    "districtPostal": "08223",
    "latitude": 37.50029169476902,
    "longitude": 126.8665750754812,
    "xCoordinate": 188132.565624313,
    "yCoordinate": 444217.948267109
  },
  {
    "name": "뮤지컬펍넘버스테이지",
    "category": "기타",
    "city": "서울특별시",
    "district": "강남구",
    "parcelAddress": "서울특별시 강남구 역삼동 817-18",
    "roadAddress": "서울특별시 강남구 강남대로96길 15, 지하1층 (역삼동)",
    "districtPostal": "06129",
    "latitude": 37.50028660721563,
    "longitude": 127.02825579682674,
    "xCoordinate": 202427.491136113,
    "yCoordinate": 444209.275456205
  },
  {
    "name": "차선책서울",
    "category": "기타",
    "city": "서울특별시",
    "district": "강남구",
    "parcelAddress": "서울특별시 강남구 신사동 657-41",
    "roadAddress": "서울특별시 강남구 선릉로155길 14, 1층,2층 (신사동)",
    "districtPostal": "06018",
    "latitude": 37.525743374196665,
    "longitude": 127.03862477832172,
    "xCoordinate": 203343.124013264,
    "yCoordinate": 447034.668578334
  },
  {
    "name": "아가젤라또(성수)",
    "category": "기타",
    "city": "서울특별시",
    "district": "성동구",
    "parcelAddress": "서울특별시 성동구 성수동2가 316-31",
    "roadAddress": "서울특별시 성동구 연무장길 41-19, 지1층 B101호 (성수동2가)",
    "districtPostal": "04782",
    "latitude": 37.54357622904022,
    "longitude": 127.05410765565114,
    "xCoordinate": 204710.448654378,
    "yCoordinate": 449014.347240596
  },
  {
    "name": "단골손님 상봉점",
    "category": "한식",
    "city": "서울특별시",
    "district": "중랑구",
    "parcelAddress": "서울특별시 중랑구 상봉동 89-1",
    "roadAddress": "서울특별시 중랑구 망우로50길 15, 1층 101호 (상봉동)",
    "districtPostal": "02149",
    "latitude": 37.59664975885369,
    "longitude": 127.089221161131,
    "xCoordinate": 207807.657649212,
    "yCoordinate": 454906.600906178
  },
  {
    "name": "고기반햄반 김치찌개&김치찜",
    "category": "한식",
    "city": "서울특별시",
    "district": "성동구",
    "parcelAddress": "서울특별시 성동구 금호동3가 1302",
    "roadAddress": "서울특별시 성동구 장터길 21-1, 1층 (금호동3가)",
    "districtPostal": "04724",
    "latitude": 37.54866865838482,
    "longitude": 127.01835643316284,
    "xCoordinate": 201551.241518861,
    "yCoordinate": 449578.294363659
  },
  {
    "name": "향래원마라탕",
    "category": "중국식",
    "city": "서울특별시",
    "district": "동대문구",
    "parcelAddress": "서울특별시 동대문구 제기동 714-18",
    "roadAddress": "서울특별시 동대문구 고산자로 511-1, 1층 (제기동)",
    "districtPostal": "02478",
    "latitude": 37.585642202011215,
    "longitude": 127.03827455024152,
    "xCoordinate": 203309.519200543,
    "yCoordinate": 453682.00124782
  },
  {
    "name": "유유(uu)",
    "category": "경양식",
    "city": "서울특별시",
    "district": "중랑구",
    "parcelAddress": "서울특별시 중랑구 면목동 91-1 103호",
    "roadAddress": "서울특별시 중랑구 봉우재로 146, 103호 (면목동)",
    "districtPostal": "02155",
    "latitude": 37.593305088976,
    "longitude": 127.08909316907148,
    "xCoordinate": 207796.704807233,
    "yCoordinate": 454535.408914871
  },
  {
    "name": "별관",
    "category": "한식",
    "city": "서울특별시",
    "district": "성북구",
    "parcelAddress": "서울특별시 성북구 동선동1가 85-38",
    "roadAddress": "서울특별시 성북구 동소문로24길 31, 지하1층 (동선동1가)",
    "districtPostal": "02845",
    "latitude": 37.59247829703331,
    "longitude": 127.01896883157607,
    "xCoordinate": 201604.411431914,
    "yCoordinate": 454440.144465121
  },
  {
    "name": "한성돼",
    "category": "식육(숯불구이)",
    "city": "서울특별시",
    "district": "성북구",
    "parcelAddress": "서울특별시 성북구 동소문동2가 285",
    "roadAddress": "서울특별시 성북구 동소문로2길 63, 1층 (동소문동2가)",
    "districtPostal": "02860",
    "latitude": 37.58908804245767,
    "longitude": 127.00946255034508,
    "xCoordinate": 200764.987289261,
    "yCoordinate": 454063.784728318
  },
  {
    "name": "도쿄술집(성신여대점)",
    "category": "기타",
    "city": "서울특별시",
    "district": "성북구",
    "parcelAddress": "서울특별시 성북구 동선동3가 1",
    "roadAddress": "서울특별시 성북구 동소문로26가길 3, 지상1층 (동선동3가)",
    "districtPostal": "02845",
    "latitude": 37.59468055394687,
    "longitude": 127.0195252197632,
    "xCoordinate": 201653.494954375,
    "yCoordinate": 454684.553804488
  },
  {
    "name": "현방오백소갈비살",
    "category": "한식",
    "city": "서울특별시",
    "district": "도봉구",
    "parcelAddress": "서울특별시 도봉구 쌍문동 19-2",
    "roadAddress": "서울특별시 도봉구 도당로2길 7, 1층 (쌍문동)",
    "districtPostal": "01393",
    "latitude": 37.659662495167154,
    "longitude": 127.0354751526326,
    "xCoordinate": 203059.25895531,
    "yCoordinate": 461896.491182226
  },
  {
    "name": "더피자 은평점",
    "category": "한식",
    "city": "서울특별시",
    "district": "은평구",
    "parcelAddress": "서울특별시 은평구 대조동 211-10",
    "roadAddress": "서울특별시 은평구 역말로9가길 15, 1층 (대조동)",
    "districtPostal": "03389",
    "latitude": 37.612998547601904,
    "longitude": 126.92025195856412,
    "xCoordinate": 192889.101538864,
    "yCoordinate": 456720.317606803
  },
  {
    "name": "소담유부",
    "category": "일식",
    "city": "서울특별시",
    "district": "성북구",
    "parcelAddress": "서울특별시 성북구 하월곡동 21-78",
    "roadAddress": "서울특별시 성북구 화랑로13길 28, 1층 (하월곡동)",
    "districtPostal": "02748",
    "latitude": 37.604802012472575,
    "longitude": 127.04229297337,
    "xCoordinate": 203663.461928421,
    "yCoordinate": 455808.447873565
  },
  {
    "name": "토쿠이",
    "category": "일식",
    "city": "서울특별시",
    "district": "마포구",
    "parcelAddress": "서울특별시 마포구 연남동 224-18",
    "roadAddress": "서울특별시 마포구 동교로 282, 지1층 (연남동)",
    "districtPostal": "03981",
    "latitude": 37.56439685947284,
    "longitude": 126.9266575591694,
    "xCoordinate": 193450.339922795,
    "yCoordinate": 451326.189406923
  },
  {
    "name": "도시피자 상암점",
    "category": "경양식",
    "city": "서울특별시",
    "district": "서대문구",
    "parcelAddress": "서울특별시 서대문구 북가좌동 371-12 국제빌딩",
    "roadAddress": "서울특별시 서대문구 수색로 144, 국제빌딩 지1층 105호 (북가좌동)",
    "districtPostal": "03714",
    "latitude": 37.57552889552989,
    "longitude": 126.90524368463409,
    "xCoordinate": 191559.918118738,
    "yCoordinate": 452563.291844785
  },
  {
    "name": "몽란",
    "category": "기타",
    "city": "서울특별시",
    "district": "성북구",
    "parcelAddress": "서울특별시 성북구 동선동4가 122-4",
    "roadAddress": "서울특별시 성북구 동소문로 129-1, 1~3층 (동선동4가)",
    "districtPostal": "02829",
    "latitude": 37.594680518278885,
    "longitude": 127.01870102216006,
    "xCoordinate": 201580.715751086,
    "yCoordinate": 454684.535654679
  },
  {
    "name": "옥자 성수",
    "category": "기타",
    "city": "서울특별시",
    "district": "성동구",
    "parcelAddress": "서울특별시 성동구 성수동2가 273-13 태광산업",
    "roadAddress": "서울특별시 성동구 연무장15길 11, 태광산업 가(C)동 2층 C202호 (성수동2가)",
    "districtPostal": "04783",
    "latitude": 37.542729772415214,
    "longitude": 127.05927979866,
    "xCoordinate": 205167.535545926,
    "yCoordinate": 448920.682564138
  },
  {
    "name": "전주밥차",
    "category": "한식",
    "city": "서울특별시",
    "district": "마포구",
    "parcelAddress": "서울특별시 마포구 염리동 168-9 재화스퀘어",
    "roadAddress": "서울특별시 마포구 독막로 311, 재화스퀘어 지하1층 B113호 (염리동)",
    "districtPostal": "04156",
    "latitude": 37.544195416614095,
    "longitude": 126.94753062207074,
    "xCoordinate": 195292.972627854,
    "yCoordinate": 449083.060282147
  },
  {
    "name": "하봉참치스시",
    "category": "일식",
    "city": "서울특별시",
    "district": "마포구",
    "parcelAddress": "서울특별시 마포구 공덕동 242-71 소담빌딩",
    "roadAddress": "서울특별시 마포구 마포대로12길 36, 소담빌딩 2층 (공덕동)",
    "districtPostal": "04211",
    "latitude": 37.547514054840136,
    "longitude": 126.95466885834942,
    "xCoordinate": 195923.907373498,
    "yCoordinate": 449451.016170423
  },
  {
    "name": "충당",
    "category": "기타",
    "city": "서울특별시",
    "district": "마포구",
    "parcelAddress": "서울특별시 마포구 합정동 388-10",
    "roadAddress": "서울특별시 마포구 월드컵로3길 31-8, 2층 (합정동)",
    "districtPostal": "04025",
    "latitude": 37.55023464707388,
    "longitude": 126.91089184139015,
    "xCoordinate": 192056.110506184,
    "yCoordinate": 449755.735416763
  },
  {
    "name": "중국집입니다",
    "category": "중국식",
    "city": "서울특별시",
    "district": "강남구",
    "parcelAddress": "서울특별시 강남구 삼성동 8-2 브라운스톤 레전드",
    "roadAddress": "서울특별시 강남구 선릉로 660, 지하1층 B110호,B111호 키친42강남구청점 10호 (삼성동, 브라운스톤 레전드)",
    "districtPostal": "06088",
    "latitude": 37.515752984155725,
    "longitude": 127.04238438476789,
    "xCoordinate": 203675.905036013,
    "yCoordinate": 445926.119732235
  },
  {
    "name": "봉구스 밥버거",
    "category": "한식",
    "city": "서울특별시",
    "district": "강서구",
    "parcelAddress": "서울특별시 강서구 등촌동 510-12 1층",
    "roadAddress": "서울특별시 강서구 등촌로51길 9, 1층 (등촌동)",
    "districtPostal": "07668",
    "latitude": 37.54897055137459,
    "longitude": 126.86278460496196,
    "xCoordinate": 187805.358954027,
    "yCoordinate": 449620.603490632
  },
  {
    "name": "모루야",
    "category": "일식",
    "city": "서울특별시",
    "district": "강서구",
    "parcelAddress": "서울특별시 강서구 마곡동 799-3 문영 퀸즈파크12차",
    "roadAddress": "서울특별시 강서구 공항대로 194, 문영 퀸즈파크12차 1층 111호 (마곡동)",
    "districtPostal": "07631",
    "latitude": 37.559223376346566,
    "longitude": 126.82903791872582,
    "xCoordinate": 184825.676320005,
    "yCoordinate": 450763.336622561
  },
  {
    "name": "브리즈커피",
    "category": "기타",
    "city": "서울특별시",
    "district": "구로구",
    "parcelAddress": "서울특별시 구로구 구로동 685-216",
    "roadAddress": "서울특별시 구로구 구일로4길 29, 1층 (구로동)",
    "districtPostal": "08324",
    "latitude": 37.4919205915891,
    "longitude": 126.87587417664491,
    "xCoordinate": 188953.508733624,
    "yCoordinate": 443287.8318629
  },
  {
    "name": "불타는 포차",
    "category": "호프/통닭",
    "city": "서울특별시",
    "district": "구로구",
    "parcelAddress": "서울특별시 구로구 신도림동 292-45",
    "roadAddress": "서울특별시 구로구 신도림로11다길 6, 1층 (신도림동)",
    "districtPostal": "08205",
    "latitude": 37.5093508680415,
    "longitude": 126.87820631191852,
    "xCoordinate": 189162.246074747,
    "yCoordinate": 445221.889843094
  },
  {
    "name": "힘내 커피",
    "category": "기타",
    "city": "서울특별시",
    "district": "영등포구",
    "parcelAddress": "서울특별시 영등포구 당산동1가 77-3",
    "roadAddress": "서울특별시 영등포구 영신로37길 13-1, 1층 (당산동1가)",
    "districtPostal": "07267",
    "latitude": 37.52144147804123,
    "longitude": 126.899624328724,
    "xCoordinate": 191057.124646878,
    "yCoordinate": 446561.399943347
  },
  {
    "name": "김밥오리진(Origin)",
    "category": "분식",
    "city": "서울특별시",
    "district": "영등포구",
    "parcelAddress": "서울특별시 영등포구 여의도동 44-5",
    "roadAddress": "서울특별시 영등포구 여의대방로69길 19, 1층 110호 (여의도동)",
    "districtPostal": "07333",
    "latitude": 37.52080417607728,
    "longitude": 126.93045126525514,
    "xCoordinate": 193781.852246267,
    "yCoordinate": 446488.190917868
  },
  {
    "name": "네오",
    "category": "김밥(도시락)",
    "city": "서울특별시",
    "district": "관악구",
    "parcelAddress": "서울특별시 관악구 신림동 706-25",
    "roadAddress": "서울특별시 관악구 난곡로35길 7, 1층 (신림동)",
    "districtPostal": "08858",
    "latitude": 37.4729088121525,
    "longitude": 126.91836652735616,
    "xCoordinate": 192709.023153285,
    "yCoordinate": 441173.863995177
  },
  {
    "name": "두레유",
    "category": "한식",
    "city": "서울특별시",
    "district": "종로구",
    "parcelAddress": "서울특별시 종로구 평창동 193-1 전진빌딩",
    "roadAddress": "서울특별시 종로구 평창문화로 84, 전진빌딩 2층 (평창동)",
    "districtPostal": "03011",
    "latitude": 37.60670045820903,
    "longitude": 126.97059105426534,
    "xCoordinate": 197332.885550763,
    "yCoordinate": 456018.751573648
  },
  {
    "name": "스타주점",
    "category": "정종/대포집/소주방",
    "city": "서울특별시",
    "district": "관악구",
    "parcelAddress": "서울특별시 관악구 봉천동 871-73",
    "roadAddress": "서울특별시 관악구 봉천로 459, 지1층 (봉천동)",
    "districtPostal": "08745",
    "latitude": 37.48276209151231,
    "longitude": 126.9511155016399,
    "xCoordinate": 195606.1423178,
    "yCoordinate": 442265.29751879
  },
  {
    "name": "카츠오도 낙성대점",
    "category": "일식",
    "city": "서울특별시",
    "district": "관악구",
    "parcelAddress": "서울특별시 관악구 봉천동 1644-6",
    "roadAddress": "서울특별시 관악구 인헌3길 5, 1층 104호 (봉천동)",
    "districtPostal": "08795",
    "latitude": 37.4746406459186,
    "longitude": 126.9672536716422,
    "xCoordinate": 197033.003298433,
    "yCoordinate": 441363.391202842
  },
  {
    "name": "돌쇠 솥뚜껑",
    "category": "기타",
    "city": "서울특별시",
    "district": "성북구",
    "parcelAddress": "서울특별시 성북구 장위동 76-191",
    "roadAddress": "서울특별시 성북구 장월로26길 7, 지층 및 1층 (장위동)",
    "districtPostal": "02766",
    "latitude": 37.61756057246164,
    "longitude": 127.05076471703448,
    "xCoordinate": 204410.688317294,
    "yCoordinate": 457224.722187291
  },
  {
    "name": "구룡관 혜화본점",
    "category": "중국식",
    "city": "서울특별시",
    "district": "종로구",
    "parcelAddress": "서울특별시 종로구 명륜2가 21-14",
    "roadAddress": "서울특별시 종로구 창경궁로 258-5, 지상 1층 (명륜2가)",
    "districtPostal": "03077",
    "latitude": 37.584228403746415,
    "longitude": 127.00048578782108,
    "xCoordinate": 199972.250210331,
    "yCoordinate": 453524.442402278
  },
  {
    "name": "두번먹는 명인김치찜",
    "category": "한식",
    "city": "서울특별시",
    "district": "서초구",
    "parcelAddress": "서울특별시 서초구 방배동 864-37 지하1층",
    "roadAddress": "서울특별시 서초구 도구로 119-2, 지하1층 (방배동)",
    "districtPostal": "06569",
    "latitude": 37.48742123814675,
    "longitude": 126.98584182644431,
    "xCoordinate": 198677.25337663,
    "yCoordinate": 442781.291554296
  },
  {
    "name": "삼호령 김치찜",
    "category": "한식",
    "city": "서울특별시",
    "district": "서초구",
    "parcelAddress": "서울특별시 서초구 방배동 864-37 지하1층",
    "roadAddress": "서울특별시 서초구 도구로 119-2, 지하1층 (방배동)",
    "districtPostal": "06569",
    "latitude": 37.48742123814675,
    "longitude": 126.98584182644431,
    "xCoordinate": 198677.25337663,
    "yCoordinate": 442781.291554296
  },
  {
    "name": "마당재 한우국밥",
    "category": "한식",
    "city": "서울특별시",
    "district": "서초구",
    "parcelAddress": "서울특별시 서초구 서초동 1357-70 대원빌딩",
    "roadAddress": "서울특별시 서초구 강남대로43길 12, 1층 (서초동)",
    "districtPostal": "06729",
    "latitude": 37.48788043771896,
    "longitude": 127.03157933350047,
    "xCoordinate": 202721.790229726,
    "yCoordinate": 442832.591039646
  },
  {
    "name": "호앙비엣 강남역점",
    "category": "외국음식전문점(인도,태국등)",
    "city": "서울특별시",
    "district": "강남구",
    "parcelAddress": "서울특별시 강남구 역삼동 617-4",
    "roadAddress": "서울특별시 강남구 강남대로102길 31, 지상1층 1호,2호 (역삼동)",
    "districtPostal": "06124",
    "latitude": 37.50329742345804,
    "longitude": 127.02775097809928,
    "xCoordinate": 202382.762147792,
    "yCoordinate": 444543.388482475
  },
  {
    "name": "히노노리 갤러리아백화점점",
    "category": "일식",
    "city": "서울특별시",
    "district": "강남구",
    "parcelAddress": "서울특별시 강남구 압구정동 494 갤러리아백화점",
    "roadAddress": "서울특별시 강남구 압구정로 343, 갤러리아백화점 지하1층 (압구정동)",
    "districtPostal": "06008",
    "latitude": 37.52876078194144,
    "longitude": 127.04007145995864,
    "xCoordinate": 203470.848439305,
    "yCoordinate": 447369.579851952
  },
  {
    "name": "밀회관 역삼점",
    "category": "경양식",
    "city": "서울특별시",
    "district": "강남구",
    "parcelAddress": "서울특별시 강남구 역삼동 677 서울철강빌딩",
    "roadAddress": "서울특별시 강남구 테헤란로33길 18, 서울철강빌딩 지상1층 (역삼동)",
    "districtPostal": "06142",
    "latitude": 37.50320707694708,
    "longitude": 127.03934033977797,
    "xCoordinate": 203407.393009297,
    "yCoordinate": 444533.718771768
  },
  {
    "name": "파스타 파는 남자",
    "category": "경양식",
    "city": "서울특별시",
    "district": "강남구",
    "parcelAddress": "서울특별시 강남구 역삼동 661",
    "roadAddress": "서울특별시 강남구 언주로103길 27, 지하1층 (역삼동)",
    "districtPostal": "06137",
    "latitude": 37.506370191997874,
    "longitude": 127.03790608237703,
    "xCoordinate": 203280.450353754,
    "yCoordinate": 444884.695313788
  },
  {
    "name": "신명떡볶이 암사본점",
    "category": "분식",
    "city": "서울특별시",
    "district": "강동구",
    "parcelAddress": "서울특별시 강동구 암사동 455-43 햇살담은채",
    "roadAddress": "서울특별시 강동구 고덕로24길 32, 1층 101호 (암사동, 햇살담은채)",
    "districtPostal": "05254",
    "latitude": 37.55346209397899,
    "longitude": 127.13542734913965,
    "xCoordinate": 211894.569145406,
    "yCoordinate": 450118.623756386
  },
  {
    "name": "오육 석관점",
    "category": "한식",
    "city": "서울특별시",
    "district": "성북구",
    "parcelAddress": "서울특별시 성북구 석관동 65-36",
    "roadAddress": "서울특별시 성북구 한천로71길 13-5, 1층 (석관동)",
    "districtPostal": "02784",
    "latitude": 37.60925713125511,
    "longitude": 127.0633564133629,
    "xCoordinate": 205522.847804041,
    "yCoordinate": 456303.894848831
  },
  {
    "name": "매우당 천호점",
    "category": "한식",
    "city": "서울특별시",
    "district": "강동구",
    "parcelAddress": "서울특별시 강동구 성내동 226-28",
    "roadAddress": "서울특별시 강동구 풍성로37가길 30, 1층 (성내동)",
    "districtPostal": "05388",
    "latitude": 37.53314905440648,
    "longitude": 127.12794043629812,
    "xCoordinate": 211236.134779636,
    "yCoordinate": 447863.441969186
  },
  {
    "name": "파스타에 반하다 & 볶음밥도사 은평구점",
    "category": "경양식",
    "city": "서울특별시",
    "district": "은평구",
    "parcelAddress": "서울특별시 은평구 대조동 171-6 명진하이빌",
    "roadAddress": "서울특별시 은평구 연서로18길 34, 1층 101호 (대조동, 명진하이빌)",
    "districtPostal": "03393",
    "latitude": 37.61206937791513,
    "longitude": 126.92121772973464,
    "xCoordinate": 192974.27382546,
    "yCoordinate": 456617.128146224
  },
  {
    "name": "착한돈까스 훔친고기",
    "category": "한식",
    "city": "서울특별시",
    "district": "강동구",
    "parcelAddress": "서울특별시 강동구 고덕동 210-1 고덕센트럴푸르지오",
    "roadAddress": "서울특별시 강동구 고덕로 399, 메가스퀘어동 B126호 (고덕동, 고덕센트럴푸르지오)",
    "districtPostal": "05222",
    "latitude": 37.55791664153775,
    "longitude": 127.17008935141368,
    "xCoordinate": 214956.131343654,
    "yCoordinate": 450617.923583608
  },
  {
    "name": "순수순 부대찌개&닭갈비",
    "category": "한식",
    "city": "서울특별시",
    "district": "영등포구",
    "parcelAddress": "서울특별시 영등포구 여의도동 12-1 삼도오피스텔",
    "roadAddress": "서울특별시 영등포구 은행로 58, 지하층 105호, 106호 (여의도동, 삼도오피스텔)",
    "districtPostal": "07241",
    "latitude": 37.530162787442414,
    "longitude": 126.92486943110484,
    "xCoordinate": 193289.310384283,
    "yCoordinate": 447527.152620774
  },
  {
    "name": "마장동고기집 답십리역점",
    "category": "한식",
    "city": "서울특별시",
    "district": "동대문구",
    "parcelAddress": "서울특별시 동대문구 답십리동 70-19",
    "roadAddress": "서울특별시 동대문구 전농로 96-1, 1층 (답십리동)",
    "districtPostal": "02538",
    "latitude": 37.57379346076517,
    "longitude": 127.05774994908889,
    "xCoordinate": 205030.262510537,
    "yCoordinate": 452367.931822965
  },
  {
    "name": "돈카츠식탁",
    "category": "경양식",
    "city": "서울특별시",
    "district": "양천구",
    "parcelAddress": "서울특별시 양천구 목동 750-4 목동프라자",
    "roadAddress": "서울특별시 양천구 목동중앙본로 36, 목동프라자 1층 103호 (목동)",
    "districtPostal": "07975",
    "latitude": 37.53980229981078,
    "longitude": 126.86936376119635,
    "xCoordinate": 188385.252127565,
    "yCoordinate": 448602.31391206
  },
  {
    "name": "서울브루어리 성수 탭룸",
    "category": "기타",
    "city": "서울특별시",
    "district": "성동구",
    "parcelAddress": "서울특별시 성동구 성수동2가 310-53",
    "roadAddress": "서울특별시 성동구 연무장길 28-12, 2층 (성수동2가)",
    "districtPostal": "04781",
    "latitude": 37.54326291922997,
    "longitude": 127.05233460794192,
    "xCoordinate": 204553.795077999,
    "yCoordinate": 448979.490026691
  },
  {
    "name": "육회바른연어 위례점",
    "category": "한식",
    "city": "서울특별시",
    "district": "송파구",
    "parcelAddress": "서울특별시 송파구 장지동 897 위례중앙푸르지오1단지",
    "roadAddress": "서울특별시 송파구 위례광장로 120, 상가동 111호 (장지동, 위례중앙푸르지오1단지)",
    "districtPostal": "05852",
    "latitude": 37.47499869934792,
    "longitude": 127.14159540712578,
    "xCoordinate": 212452.558599859,
    "yCoordinate": 441411.906445707
  },
  {
    "name": "영앤리치푸드",
    "category": "한식",
    "city": "서울특별시",
    "district": "성북구",
    "parcelAddress": "서울특별시 성북구 돈암동 609-1 한신한진아파트",
    "roadAddress": "서울특별시 성북구 성북로4길 52, 제411동 제1층 3101호 (돈암동, 한신한진아파트)",
    "districtPostal": "02831",
    "latitude": 37.59501461880942,
    "longitude": 127.01033228997878,
    "xCoordinate": 200841.726990037,
    "yCoordinate": 454721.505180141
  },
  {
    "name": "서촌 기와집",
    "category": "분식",
    "city": "서울특별시",
    "district": "종로구",
    "parcelAddress": "서울특별시 종로구 필운동 204-2번지 ",
    "roadAddress": "서울특별시 종로구 자하문로1길 35 (필운동)",
    "districtPostal": "03041",
    "latitude": 37.576712902306525,
    "longitude": 126.97025684645128,
    "xCoordinate": 197302.296489158,
    "yCoordinate": 452690.835506396
  },
  {
    "name": "육주간",
    "category": "한식",
    "city": "서울특별시",
    "district": "중구",
    "parcelAddress": "서울특별시 중구 회현동3가 11-3 세대빌딩",
    "roadAddress": "서울특별시 중구 퇴계로 108, 세대빌딩 1층 (회현동3가)",
    "districtPostal": "04631",
    "latitude": 37.56068810994435,
    "longitude": 126.98373848885224,
    "xCoordinate": 198492.730625257,
    "yCoordinate": 450912.159237941
  },
  {
    "name": "태화당.",
    "category": "한식",
    "city": "서울특별시",
    "district": "광진구",
    "parcelAddress": "서울특별시 광진구 구의동 248-12",
    "roadAddress": "서울특별시 광진구 아차산로51길 98, 2층 (구의동)",
    "districtPostal": "05040",
    "latitude": 37.54146782019074,
    "longitude": 127.0856112665753,
    "xCoordinate": 207494.428053056,
    "yCoordinate": 448782.409092603
  },
  {
    "name": "로컬팟",
    "category": "기타",
    "city": "서울특별시",
    "district": "마포구",
    "parcelAddress": "서울특별시 마포구 서교동 453-13",
    "roadAddress": "서울특별시 마포구 월드컵북로7길 38, 1층 (서교동)",
    "districtPostal": "03999",
    "latitude": 37.55796036447478,
    "longitude": 126.91599063107547,
    "xCoordinate": 192507.390746607,
    "yCoordinate": 450612.687611164
  },
  {
    "name": "드렁킨타이 목동점",
    "category": "외국음식전문점(인도,태국등)",
    "city": "서울특별시",
    "district": "양천구",
    "parcelAddress": "서울특별시 양천구 목동 908-29 하이베라스 110호",
    "roadAddress": "서울특별시 양천구 목동서로 37, 하이베라스 1층 110호 (목동)",
    "districtPostal": "07984",
    "latitude": 37.53768146519103,
    "longitude": 126.88168244349406,
    "xCoordinate": 189473.530827695,
    "yCoordinate": 448365.502006523
  },
  {
    "name": "회가대표 초밥24",
    "category": "일식",
    "city": "서울특별시",
    "district": "금천구",
    "parcelAddress": "서울특별시 금천구 독산동 1156 금천롯데캐슬골드파크4차",
    "roadAddress": "서울특별시 금천구 시흥대로 315, 금천롯데캐슬골드파크4차 104호 (독산동)",
    "districtPostal": "08608",
    "latitude": 37.461286232280365,
    "longitude": 126.89679688929682,
    "xCoordinate": 190799.832998673,
    "yCoordinate": 439885.941303087
  },
  {
    "name": "무의도바다손칼국수",
    "category": "한식",
    "city": "서울특별시",
    "district": "영등포구",
    "parcelAddress": "서울특별시 영등포구 대림동 856-8",
    "roadAddress": "서울특별시 영등포구 디지털로 407, 1층 (대림동)",
    "districtPostal": "07429",
    "latitude": 37.493213100457496,
    "longitude": 126.90365974942968,
    "xCoordinate": 191410.5801213,
    "yCoordinate": 443428.370177829
  },
  {
    "name": "치카라 돈이찌",
    "category": "일식",
    "city": "서울특별시",
    "district": "강남구",
    "parcelAddress": "서울특별시 강남구 압구정동 494 갤러리아백화점",
    "roadAddress": "서울특별시 강남구 압구정로 343, 갤러리아백화점 지하1층 (압구정동)",
    "districtPostal": "06008",
    "latitude": 37.52876078194144,
    "longitude": 127.04007145995864,
    "xCoordinate": 203470.848439305,
    "yCoordinate": 447369.579851952
  },
  {
    "name": "알리바바 쏙쏙김밥 종로타워점",
    "category": "분식",
    "city": "서울특별시",
    "district": "종로구",
    "parcelAddress": "서울특별시 종로구 종로2가 6번지 종로타워 ",
    "roadAddress": "서울특별시 종로구 종로 51, 종로타워 지하2층 B201호 (종로2가)",
    "districtPostal": "03161",
    "latitude": 37.57065423303189,
    "longitude": 126.9838725441821,
    "xCoordinate": 198504.772723631,
    "yCoordinate": 452018.161511911
  },
  {
    "name": "청춘일번지",
    "category": "호프/통닭",
    "city": "서울특별시",
    "district": "종로구",
    "parcelAddress": "서울특별시 종로구 낙원동 198 금강빌딩",
    "roadAddress": "서울특별시 종로구 수표로 108, 금강빌딩 지하1층 (낙원동)",
    "districtPostal": "03139",
    "latitude": 37.57110303711975,
    "longitude": 126.9895259482636,
    "xCoordinate": 199004.15226816,
    "yCoordinate": 452067.89327956
  },
  {
    "name": "밀카페 우프",
    "category": "기타",
    "city": "서울특별시",
    "district": "마포구",
    "parcelAddress": "서울특별시 마포구 창전동 444 서강쌍용예가",
    "roadAddress": "서울특별시 마포구 독막로 147-7, 서강쌍용예가 104호 (창전동)",
    "districtPostal": "04069",
    "latitude": 37.54856445292138,
    "longitude": 126.92944212659133,
    "xCoordinate": 193694.991688366,
    "yCoordinate": 449568.977982811
  },
  {
    "name": "꾸브라꼬 숯불두마리치킨 미아점",
    "category": "호프/통닭",
    "city": "서울특별시",
    "district": "강북구",
    "parcelAddress": "서울특별시 강북구 미아동 323-48 다원힐스빌",
    "roadAddress": "서울특별시 강북구 도봉로29길 25-2, 1층 101호 (미아동, 다원힐스빌)",
    "districtPostal": "01177",
    "latitude": 37.62050975808597,
    "longitude": 127.02676425945494,
    "xCoordinate": 202291.931915579,
    "yCoordinate": 457551.158252876
  },
  {
    "name": "라사천마라탕 대림점",
    "category": "중국식",
    "city": "서울특별시",
    "district": "영등포구",
    "parcelAddress": "서울특별시 영등포구 대림동 864-32 대성빌딩",
    "roadAddress": "서울특별시 영등포구 디지털로 398, 대성빌딩 1층 104호 (대림동)",
    "districtPostal": "07438",
    "latitude": 37.49228460397064,
    "longitude": 126.90316528545974,
    "xCoordinate": 191366.751314427,
    "yCoordinate": 443325.375451909
  },
  {
    "name": "주식회사 해담채여의도",
    "category": "한식",
    "city": "서울특별시",
    "district": "영등포구",
    "parcelAddress": "서울특별시 영등포구 여의도동 16-2 중소기업중앙회",
    "roadAddress": "서울특별시 영등포구 은행로 30, 중소기업중앙회 신관1층 110호 (여의도동)",
    "districtPostal": "07242",
    "latitude": 37.528388867428006,
    "longitude": 126.92272432057956,
    "xCoordinate": 193099.563598351,
    "yCoordinate": 447330.445753577
  },
  {
    "name": "남영동 양문 성수역점",
    "category": "기타",
    "city": "서울특별시",
    "district": "성동구",
    "parcelAddress": "서울특별시 성동구 성수동2가 325-2 서울숲한라시그마벨리",
    "roadAddress": "서울특별시 성동구 성수이로 51, 1층 103A,103B호 (성수동2가)",
    "districtPostal": "04781",
    "latitude": 37.540464257260176,
    "longitude": 127.05510013246898,
    "xCoordinate": 204798.346778805,
    "yCoordinate": 448669.043360044
  },
  {
    "name": "제육의 법칙",
    "category": "경양식",
    "city": "서울특별시",
    "district": "강남구",
    "parcelAddress": "서울특별시 강남구 논현동 123-1",
    "roadAddress": "서울특별시 강남구 학동로6길 3, 지상1층 (논현동)",
    "districtPostal": "06111",
    "latitude": 37.51163406172512,
    "longitude": 127.02375770834686,
    "xCoordinate": 202029.487578948,
    "yCoordinate": 445468.455827297
  },
  {
    "name": "브로콜리",
    "category": "분식",
    "city": "서울특별시",
    "district": "성북구",
    "parcelAddress": "서울특별시 성북구 장위동 214-30 1층",
    "roadAddress": "서울특별시 성북구 돌곶이로39길 9, 1층 (장위동)",
    "districtPostal": "02754",
    "latitude": 37.6177469807522,
    "longitude": 127.04708174331569,
    "xCoordinate": 204085.559692594,
    "yCoordinate": 457245.242612465
  },
  {
    "name": "해월",
    "category": "일식",
    "city": "서울특별시",
    "district": "영등포구",
    "parcelAddress": "서울특별시 영등포구 문래동2가 14-12",
    "roadAddress": "서울특별시 영등포구 도림로 439-1, 1층 (문래동2가)",
    "districtPostal": "07290",
    "latitude": 37.514528800529455,
    "longitude": 126.89403094327878,
    "xCoordinate": 190561.856890846,
    "yCoordinate": 445794.808189556
  },
  {
    "name": "고기주방",
    "category": "식육(숯불구이)",
    "city": "서울특별시",
    "district": "영등포구",
    "parcelAddress": "서울특별시 영등포구 당산동6가 311-1 유니언타운",
    "roadAddress": "서울특별시 영등포구 당산로 241, 유니언타운 1층 101호 (당산동6가)",
    "districtPostal": "07222",
    "latitude": 37.535368868484376,
    "longitude": 126.90244675741032,
    "xCoordinate": 191308.21419306,
    "yCoordinate": 448106.7377888
  },
  {
    "name": "만석계",
    "category": "한식",
    "city": "서울특별시",
    "district": "송파구",
    "parcelAddress": "서울특별시 송파구 문정동 620 송파 푸르지오시티",
    "roadAddress": "서울특별시 송파구 새말로 62, 송파 푸르지오시티 상가 1층 142호 (문정동)",
    "districtPostal": "05841",
    "latitude": 37.48095646913998,
    "longitude": 127.12127521999086,
    "xCoordinate": 210654.50616628,
    "yCoordinate": 442070.575741668
  },
  {
    "name": "카페 아이엠티 시청2청사점",
    "category": "기타",
    "city": "서울특별시",
    "district": "중구",
    "parcelAddress": "서울특별시 중구 서소문동 85-3 1층 101-2호",
    "roadAddress": "서울특별시 중구 서소문로 124, 1층 101-2호 (서소문동)",
    "districtPostal": "04514",
    "latitude": 37.563284761745386,
    "longitude": 126.9752148547746,
    "xCoordinate": 197739.803508714,
    "yCoordinate": 451200.496953953
  },
  {
    "name": "시올돈 왕십리점",
    "category": "한식",
    "city": "서울특별시",
    "district": "성동구",
    "parcelAddress": "서울특별시 성동구 행당동 268 왕십리가축병원",
    "roadAddress": "서울특별시 성동구 왕십리로 295, 1층 (행당동)",
    "districtPostal": "04744",
    "latitude": 37.56062642220238,
    "longitude": 127.03575076115706,
    "xCoordinate": 203087.666475672,
    "yCoordinate": 450905.750645406
  },
  {
    "name": "노모어피자 왕십리점",
    "category": "한식",
    "city": "서울특별시",
    "district": "성동구",
    "parcelAddress": "서울특별시 성동구 상왕십리동 811 텐즈힐",
    "roadAddress": "서울특별시 성동구 마장로 137, 221동 1층 1109호 (상왕십리동, 텐즈힐)",
    "districtPostal": "04700",
    "latitude": 37.56956648780478,
    "longitude": 127.0247307524682,
    "xCoordinate": 202113.869605464,
    "yCoordinate": 451897.581865192
  },
  {
    "name": "길포차",
    "category": "한식",
    "city": "서울특별시",
    "district": "마포구",
    "parcelAddress": "서울특별시 마포구 공덕동 115-25",
    "roadAddress": "서울특별시 마포구 만리재로 80-4, 지1층 (공덕동)",
    "districtPostal": "04185",
    "latitude": 37.54791372561607,
    "longitude": 126.95880461550264,
    "xCoordinate": 196289.357770092,
    "yCoordinate": 449495.198792649
  },
  {
    "name": "오르조르브텀 여의도(orzo le beau temps)",
    "category": "경양식",
    "city": "서울특별시",
    "district": "영등포구",
    "parcelAddress": "서울특별시 영등포구 여의도동 43 미원빌딩",
    "roadAddress": "서울특별시 영등포구 국제금융로 70, 미원빌딩 1층 109호 (여의도동)",
    "districtPostal": "07333",
    "latitude": 37.52162845077963,
    "longitude": 126.93064390833791,
    "xCoordinate": 193798.948251805,
    "yCoordinate": 446579.652565611
  },
  {
    "name": "야키토리잔잔 마곡점",
    "category": "정종/대포집/소주방",
    "city": "서울특별시",
    "district": "강서구",
    "parcelAddress": "서울특별시 강서구 마곡동 795-6 뉴골든타워",
    "roadAddress": "서울특별시 강서구 마곡중앙6로 89, 뉴골든타워 1층 104-1,105-1,105-2호 (마곡동)",
    "districtPostal": "07803",
    "latitude": 37.56038826254319,
    "longitude": 126.8372828392985,
    "xCoordinate": 185554.299381324,
    "yCoordinate": 450891.312361248
  },
  {
    "name": "홍미집 신림직영점",
    "category": "한식",
    "city": "서울특별시",
    "district": "관악구",
    "parcelAddress": "서울특별시 관악구 신림동 1641-10",
    "roadAddress": "서울특별시 관악구 신림로 322-1, 1층 (신림동)",
    "districtPostal": "08777",
    "latitude": 37.48336215533226,
    "longitude": 126.93010443022936,
    "xCoordinate": 193748.074171906,
    "yCoordinate": 442333.077344404
  },
  {
    "name": "일미락본점",
    "category": "분식",
    "city": "서울특별시",
    "district": "양천구",
    "parcelAddress": "서울특별시 양천구 목동 406-74 1층",
    "roadAddress": "서울특별시 양천구 목동동로 226-15, 1층 (목동)",
    "districtPostal": "08000",
    "latitude": 37.52574178694364,
    "longitude": 126.87298036378375,
    "xCoordinate": 188702.723254513,
    "yCoordinate": 447041.496007197
  },
  {
    "name": "족발 참 잘하는 집",
    "category": "한식",
    "city": "서울특별시",
    "district": "도봉구",
    "parcelAddress": "서울특별시 도봉구 창동 10 105호",
    "roadAddress": "서울특별시 도봉구 노해로69길 15-15, 1층 105호 (창동)",
    "districtPostal": "01414",
    "latitude": 37.65299586309104,
    "longitude": 127.0499312846954,
    "xCoordinate": 204335.057042232,
    "yCoordinate": 461157.210858518
  },
  {
    "name": "지코바 불광점",
    "category": "한식",
    "city": "서울특별시",
    "district": "은평구",
    "parcelAddress": "서울특별시 은평구 불광동 168-1 1층",
    "roadAddress": "서울특별시 은평구 불광로 197, 1층 (불광동)",
    "districtPostal": "03346",
    "latitude": 37.62397413599063,
    "longitude": 126.92972631623148,
    "xCoordinate": 193726.434038633,
    "yCoordinate": 457937.684519889
  },
  {
    "name": "무탈(MUTAL)",
    "category": "외국음식전문점(인도,태국등)",
    "city": "서울특별시",
    "district": "강남구",
    "parcelAddress": "서울특별시 강남구 신사동 663-3",
    "roadAddress": "서울특별시 강남구 압구정로50길 27, 지상2층 201호 (신사동)",
    "districtPostal": "06018",
    "latitude": 37.52669858958684,
    "longitude": 127.03788208802264,
    "xCoordinate": 203277.439911786,
    "yCoordinate": 447140.64809885
  },
  {
    "name": "수성",
    "category": "한식",
    "city": "서울특별시",
    "district": "강서구",
    "parcelAddress": "서울특별시 강서구 마곡동 776-2 외 1필지 마곡센트럴대방디엠시티오피스텔 (지상 2층) 205-1호",
    "roadAddress": "서울특별시 강서구 양천로 344, 2층 205-1호 (마곡동, 가양 1동 마곡센트럴대방디엠시티오피스텔)",
    "districtPostal": "07791",
    "latitude": 37.56849678110617,
    "longitude": 126.84035497462908,
    "xCoordinate": 185827.239418328,
    "yCoordinate": 451790.699502971
  },
  {
    "name": "정글",
    "category": "한식",
    "city": "서울특별시",
    "district": "종로구",
    "parcelAddress": "서울특별시 종로구 익선동 123-2",
    "roadAddress": "서울특별시 종로구 삼일대로30길 46, 2층 (익선동)",
    "districtPostal": "03133",
    "latitude": 37.57442031566532,
    "longitude": 126.99020216550076,
    "xCoordinate": 199063.924702653,
    "yCoordinate": 452436.026382605
  },
  {
    "name": "207다이닝",
    "category": "경양식",
    "city": "서울특별시",
    "district": "성동구",
    "parcelAddress": "서울특별시 성동구 성수동1가 656-659",
    "roadAddress": "서울특별시 성동구 성수일로1길 12-12, 지1층 (성수동1가)",
    "districtPostal": "04779",
    "latitude": 37.54231483807583,
    "longitude": 127.04755326793033,
    "xCoordinate": 204131.349876147,
    "yCoordinate": 448874.05497367
  },
  {
    "name": "마초갈비",
    "category": "한식",
    "city": "서울특별시",
    "district": "영등포구",
    "parcelAddress": "서울특별시 영등포구 여의도동 14-21",
    "roadAddress": "서울특별시 영등포구 국회대로 780, 1층 112호 (여의도동, 엘지여의도에클라트)",
    "districtPostal": "07237",
    "latitude": 37.53012261946687,
    "longitude": 126.91917456212254,
    "xCoordinate": 192785.997964211,
    "yCoordinate": 447523.1165117
  },
  {
    "name": "태양",
    "category": "한식",
    "city": "서울특별시",
    "district": "강동구",
    "parcelAddress": "서울특별시 강동구 암사동 501-20",
    "roadAddress": "서울특별시 강동구 올림픽로 778-7, 1층 104호 (암사동)",
    "districtPostal": "05264",
    "latitude": 37.55072731659704,
    "longitude": 127.1282474198907,
    "xCoordinate": 211260.620620263,
    "yCoordinate": 449814.244258699
  },
  {
    "name": "소담옥",
    "category": "한식",
    "city": "서울특별시",
    "district": "마포구",
    "parcelAddress": "서울특별시 마포구 신공덕동 14-15",
    "roadAddress": "서울특별시 마포구 만리재옛길 12-1, 1층 (신공덕동)",
    "districtPostal": "04209",
    "latitude": 37.545433453912885,
    "longitude": 126.9548895454901,
    "xCoordinate": 195943.294277932,
    "yCoordinate": 449220.109768241
  },
  {
    "name": "TARTAN HOUSE 타탄하우스",
    "category": "기타",
    "city": "서울특별시",
    "district": "성동구",
    "parcelAddress": "서울특별시 성동구 금호동3가 412",
    "roadAddress": "서울특별시 성동구 독서당로 295-1, 3층 (금호동3가)",
    "districtPostal": "04730",
    "latitude": 37.54858918113829,
    "longitude": 127.02198078783624,
    "xCoordinate": 201871.482216012,
    "yCoordinate": 449569.540265379
  },
  {
    "name": "82키친푸드2",
    "category": "한식",
    "city": "서울특별시",
    "district": "성동구",
    "parcelAddress": "서울특별시 성동구 홍익동 278-19",
    "roadAddress": "서울특별시 성동구 무학로6길 33, 2층 201호 (홍익동)",
    "districtPostal": "04708",
    "latitude": 37.56529745709981,
    "longitude": 127.03380995725924,
    "xCoordinate": 202916.027331497,
    "yCoordinate": 451424.06305151
  },
  {
    "name": "장수상회",
    "category": "한식",
    "city": "서울특별시",
    "district": "강남구",
    "parcelAddress": "서울특별시 강남구 역삼동 643-14",
    "roadAddress": "서울특별시 강남구 테헤란로25길 15-10, 지하1층 (역삼동)",
    "districtPostal": "06131",
    "latitude": 37.50199095860852,
    "longitude": 127.03450485580548,
    "xCoordinate": 202979.930975018,
    "yCoordinate": 444398.595688544
  },
  {
    "name": "스타벅스종로R",
    "category": "기타",
    "city": "서울특별시",
    "district": "종로구",
    "parcelAddress": "서울특별시 종로구 종로2가 6 종로타워",
    "roadAddress": "서울특별시 종로구 종로 51, 종로타워 1~2층 101,2층전체호 (종로2가)",
    "districtPostal": "03161",
    "latitude": 37.57065423303189,
    "longitude": 126.9838725441821,
    "xCoordinate": 198504.772723631,
    "yCoordinate": 452018.161511911
  },
  {
    "name": "국수미가 가락점",
    "category": "한식",
    "city": "서울특별시",
    "district": "송파구",
    "parcelAddress": "서울특별시 송파구 가락동 70 영남빌딩",
    "roadAddress": "서울특별시 송파구 중대로9길 53, 영남빌딩 1층 105호 (가락동)",
    "districtPostal": "05707",
    "latitude": 37.49782640223327,
    "longitude": 127.1194879294232,
    "xCoordinate": 210494.082619505,
    "yCoordinate": 443942.516227487
  },
  {
    "name": "동궈샤오휘양 샤브",
    "category": "중국식",
    "city": "서울특별시",
    "district": "영등포구",
    "parcelAddress": "서울특별시 영등포구 대림동 713-7 지상2층",
    "roadAddress": "서울특별시 영등포구 도림로39길 21 (대림동, 지상2층)",
    "districtPostal": "07415",
    "latitude": 37.49480945365977,
    "longitude": 126.89792684271764,
    "xCoordinate": 190903.853517666,
    "yCoordinate": 443606.064176681
  },
  {
    "name": "화양회관",
    "category": "한식",
    "city": "서울특별시",
    "district": "광진구",
    "parcelAddress": "서울특별시 광진구 화양동 41-8",
    "roadAddress": "서울특별시 광진구 동일로 146, 1층 (화양동)",
    "districtPostal": "05014",
    "latitude": 37.54553796084714,
    "longitude": 127.06609815061374,
    "xCoordinate": 205769.819136098,
    "yCoordinate": 449232.720673673
  },
  {
    "name": "피드백(FEEDBACK)",
    "category": "기타",
    "city": "서울특별시",
    "district": "송파구",
    "parcelAddress": "서울특별시 송파구 석촌동 173-8",
    "roadAddress": "서울특별시 송파구 백제고분로 349, 가동 1층 6,7호 (석촌동)",
    "districtPostal": "05615",
    "latitude": 37.50477063032456,
    "longitude": 127.10493605993948,
    "xCoordinate": 209206.590522133,
    "yCoordinate": 444711.630583279
  },
  {
    "name": "계동치킨",
    "category": "한식",
    "city": "서울특별시",
    "district": "마포구",
    "parcelAddress": "서울특별시 마포구 노고산동 54-7",
    "roadAddress": "서울특별시 마포구 신촌로12가길 34 (노고산동, 1층 일부)",
    "districtPostal": "04057",
    "latitude": 37.55549437524603,
    "longitude": 126.9343542112428,
    "xCoordinate": 194129.555185656,
    "yCoordinate": 450337.716045667
  },
  {
    "name": "멜팅소울",
    "category": "일식",
    "city": "서울특별시",
    "district": "중구",
    "parcelAddress": "서울특별시 중구 소공동 1 롯데백화점 본점",
    "roadAddress": "서울특별시 중구 남대문로 81, 롯데백화점 본점 지하1층 (소공동)",
    "districtPostal": "04533",
    "latitude": 37.56501329643645,
    "longitude": 126.98109903810682,
    "xCoordinate": 198259.65357739,
    "yCoordinate": 451392.198218657
  },
  {
    "name": "주식회사 호랑이 도삭면 광화문",
    "category": "한식",
    "city": "서울특별시",
    "district": "종로구",
    "parcelAddress": "서울특별시 종로구 청진동 179-1 지상1층",
    "roadAddress": "서울특별시 종로구 종로3길 24-17 (청진동,지상1층)",
    "districtPostal": "03156",
    "latitude": 37.571947922807205,
    "longitude": 126.97974271914651,
    "xCoordinate": 198140.011322724,
    "yCoordinate": 452161.804408159
  },
  {
    "name": "일미락본점",
    "category": "한식",
    "city": "서울특별시",
    "district": "양천구",
    "parcelAddress": "서울특별시 양천구 목동 406-126 1층",
    "roadAddress": "서울특별시 양천구 목동동로 226-16, 1층 (목동)",
    "districtPostal": "08000",
    "latitude": 37.52562181668496,
    "longitude": 126.8729592734551,
    "xCoordinate": 188700.841100582,
    "yCoordinate": 447028.184755201
  },
  {
    "name": "둘둘치킨(신풍?대림)",
    "category": "호프/통닭",
    "city": "서울특별시",
    "district": "영등포구",
    "parcelAddress": "서울특별시 영등포구 대림동 700-1 기영빌딩",
    "roadAddress": "서울특별시 영등포구 대림로 154, 기영빌딩 1층 110호 (대림동)",
    "districtPostal": "07422",
    "latitude": 37.494993892020034,
    "longitude": 126.9004184072794,
    "xCoordinate": 191124.182011873,
    "yCoordinate": 443626.294389029
  },
  {
    "name": "펀비어킹",
    "category": "일식",
    "city": "서울특별시",
    "district": "관악구",
    "parcelAddress": "서울특별시 관악구 신림동 1434-20 늘푸른빌딩",
    "roadAddress": "서울특별시 관악구 신림동5길 48, 늘푸른빌딩 지하1층 (신림동)",
    "districtPostal": "08760",
    "latitude": 37.48529576630797,
    "longitude": 126.92756035405708,
    "xCoordinate": 193523.257012005,
    "yCoordinate": 442547.831578485
  },
  {
    "name": "타키",
    "category": "한식",
    "city": "서울특별시",
    "district": "구로구",
    "parcelAddress": "서울특별시 구로구 신도림동 338 푸르지오2차(경인로244) 1층 106,107호",
    "roadAddress": "서울특별시 구로구 경인로67길 23, 106,107호 (신도림동,푸르지오2차(경인로244) 1층)",
    "districtPostal": "08208",
    "latitude": 37.51069227823932,
    "longitude": 126.88944991074304,
    "xCoordinate": 190156.399992266,
    "yCoordinate": 445369.517787461
  },
  {
    "name": "이모네포차",
    "category": "한식",
    "city": "서울특별시",
    "district": "강동구",
    "parcelAddress": "서울특별시 강동구 암사동 464-3",
    "roadAddress": "서울특별시 강동구 고덕로10길 53 (암사동)",
    "districtPostal": "05251",
    "latitude": 37.552517551518655,
    "longitude": 127.129675601823,
    "xCoordinate": 211386.535371617,
    "yCoordinate": 450013.089760544
  },
  {
    "name": "토담",
    "category": "한식",
    "city": "서울특별시",
    "district": "노원구",
    "parcelAddress": "서울특별시 노원구 중계동 359-1 중계5단지주공아파트",
    "roadAddress": "서울특별시 노원구 중계로 230, 주공5단지2상가 202호 (중계동, 중계5단지주공아파트)",
    "districtPostal": "01713",
    "latitude": 37.65304442190022,
    "longitude": 127.07594911532296,
    "xCoordinate": 206630.714120071,
    "yCoordinate": 461164.120761815
  },
  {
    "name": "제주청량해장 가산점",
    "category": "한식",
    "city": "서울특별시",
    "district": "금천구",
    "parcelAddress": "서울특별시 금천구 가산동 371-28 우림라이온스밸리",
    "roadAddress": "서울특별시 금천구 가산디지털1로 168, 우림라이온스밸리 A동 지상2층 203 일부호 (가산동)",
    "districtPostal": "08507",
    "latitude": 37.48016436577272,
    "longitude": 126.88250301715956,
    "xCoordinate": 189538.020935968,
    "yCoordinate": 441982.427934953
  },
  {
    "name": "참살이청국장",
    "category": "한식",
    "city": "서울특별시",
    "district": "서초구",
    "parcelAddress": "서울특별시 서초구 서초동 1599-11 지하1층5호",
    "roadAddress": "서울특별시 서초구 서초중앙로 63 (서초동,지하1층5호)",
    "districtPostal": "06651",
    "latitude": 37.48750833274396,
    "longitude": 127.0144661710759,
    "xCoordinate": 201208.493843332,
    "yCoordinate": 442790.939502082
  },
  {
    "name": "사계절",
    "category": "한식",
    "city": "서울특별시",
    "district": "송파구",
    "parcelAddress": "서울특별시 송파구 잠실동 176-2 잠실동 렉스빌2차",
    "roadAddress": "서울특별시 송파구 백제고분로7길 3-10, 잠실동 렉스빌2차 지하1층 101-10호 (잠실동)",
    "districtPostal": "05556",
    "latitude": 37.511109876784246,
    "longitude": 127.07932510116191,
    "xCoordinate": 206941.757489986,
    "yCoordinate": 445412.933180995
  },
  {
    "name": "먹골풍천민물장어",
    "category": "한식",
    "city": "서울특별시",
    "district": "중랑구",
    "parcelAddress": "서울특별시 중랑구 묵동 181-8",
    "roadAddress": "서울특별시 중랑구 동일로 858 (묵동)",
    "districtPostal": "02045",
    "latitude": 37.60721885304879,
    "longitude": 127.07875348585786,
    "xCoordinate": 206882.379857079,
    "yCoordinate": 456078.709603397
  },
  {
    "name": "산시면가",
    "category": "한식",
    "city": "서울특별시",
    "district": "성북구",
    "parcelAddress": "서울특별시 성북구 안암동5가 104-16",
    "roadAddress": "서울특별시 성북구 안암로 91 (안암동5가)",
    "districtPostal": "02856",
    "latitude": 37.58439721241552,
    "longitude": 127.0306273611668,
    "xCoordinate": 202634.210876953,
    "yCoordinate": 453543.594400366
  },
  {
    "name": "모모스",
    "category": "일식",
    "city": "서울특별시",
    "district": "강동구",
    "parcelAddress": "서울특별시 강동구 성내동 12-38",
    "roadAddress": "서울특별시 강동구 천호옛14길 23-4, 1층 (성내동)",
    "districtPostal": "05379",
    "latitude": 37.53647077499143,
    "longitude": 127.12700532881284,
    "xCoordinate": 211152.999198771,
    "yCoordinate": 448231.961539489
  },
  {
    "name": "길투당구클럽",
    "category": "한식",
    "city": "서울특별시",
    "district": "강동구",
    "parcelAddress": "서울특별시 강동구 성내동 12-3 성내프라자",
    "roadAddress": "서울특별시 강동구 천호옛14길 37, 성내프라자 2층 (성내동)",
    "districtPostal": "05379",
    "latitude": 37.536268924435085,
    "longitude": 127.12766363755216,
    "xCoordinate": 211211.205407847,
    "yCoordinate": 448209.639267106
  },
  {
    "name": "여탕매점",
    "category": "분식",
    "city": "서울특별시",
    "district": "강동구",
    "parcelAddress": "서울특별시 강동구 성내동 428-2 파크프라자",
    "roadAddress": "서울특별시 강동구 양재대로89길 16, 지1층 B101호 (성내동, 파크프라자)",
    "districtPostal": "05404",
    "latitude": 37.52712431968655,
    "longitude": 127.13474396450236,
    "xCoordinate": 211838.35431041,
    "yCoordinate": 447195.676766748
  },
  {
    "name": "Null Pub(널펍)",
    "category": "기타",
    "city": "서울특별시",
    "district": "구로구",
    "parcelAddress": "서울특별시 구로구 가리봉동 136-95",
    "roadAddress": "서울특별시 구로구 남부순환로105가길 20, 지하1층 (가리봉동)",
    "districtPostal": "08395",
    "latitude": 37.47991064298213,
    "longitude": 126.8928726009465,
    "xCoordinate": 190455.056884776,
    "yCoordinate": 441953.169448475
  },
  {
    "name": "상아김밤 마포점",
    "category": "분식",
    "city": "서울특별시",
    "district": "마포구",
    "parcelAddress": "서울특별시 마포구 공덕동 476 공덕파크자이",
    "roadAddress": "서울특별시 마포구 백범로 152, 201동 1층 11호 (공덕동, 공덕파크자이)",
    "districtPostal": "04148",
    "latitude": 37.54507298147912,
    "longitude": 126.94797038060094,
    "xCoordinate": 195331.885613245,
    "yCoordinate": 449180.427006045
  },
  {
    "name": "호디박스앤해피토스트",
    "category": "기타",
    "city": "서울특별시",
    "district": "구로구",
    "parcelAddress": "서울특별시 구로구 구로동 222-3 제이앤케이디지털타워",
    "roadAddress": "서울특별시 구로구 디지털로26길 111, 제이앤케이디지털타워 지하1층 B011호 (구로동)",
    "districtPostal": "08390",
    "latitude": 37.48261735091581,
    "longitude": 126.89702761439844,
    "xCoordinate": 190822.851419439,
    "yCoordinate": 442253.132895893
  },
  {
    "name": "더쿠네 오리바베큐 금천점",
    "category": "한식",
    "city": "서울특별시",
    "district": "금천구",
    "parcelAddress": "서울특별시 금천구 독산동 1032-4",
    "roadAddress": "서울특별시 금천구 범안로 1238, 1층 2호 (독산동)",
    "districtPostal": "08616",
    "latitude": 37.46652378035461,
    "longitude": 126.89927065601408,
    "xCoordinate": 191019.290181748,
    "yCoordinate": 440466.93700543
  },
  {
    "name": "소팔소곱창 독산점",
    "category": "한식",
    "city": "서울특별시",
    "district": "금천구",
    "parcelAddress": "서울특별시 금천구 독산동 291-1 현대지식산업센터",
    "roadAddress": "서울특별시 금천구 두산로 70, 현대지식산업센터 지하1층 T-L 132호 (독산동)",
    "districtPostal": "08584",
    "latitude": 37.469201265849954,
    "longitude": 126.895599363958,
    "xCoordinate": 190694.880295092,
    "yCoordinate": 440764.426277932
  },
  {
    "name": "해탄(신촌점)",
    "category": "기타",
    "city": "서울특별시",
    "district": "서대문구",
    "parcelAddress": "서울특별시 서대문구 창천동 13-42 (지상1층)",
    "roadAddress": "서울특별시 서대문구 연세로4길 30 (창천동,(지상1층))",
    "districtPostal": "03777",
    "latitude": 37.55772057160508,
    "longitude": 126.93850735253962,
    "xCoordinate": 194496.646443395,
    "yCoordinate": 450584.519684484
  },
  {
    "name": "한접시",
    "category": "호프/통닭",
    "city": "서울특별시",
    "district": "마포구",
    "parcelAddress": "서울특별시 마포구 합정동 410-20",
    "roadAddress": "서울특별시 마포구 독막로 53 (합정동, 1층 우측)",
    "districtPostal": "04048",
    "latitude": 37.54829006342527,
    "longitude": 126.91907312813136,
    "xCoordinate": 192778.7855568,
    "yCoordinate": 449539.27321717
  },
  {
    "name": "스택(STACK)",
    "category": "기타",
    "city": "서울특별시",
    "district": "마포구",
    "parcelAddress": "서울특별시 마포구 동교동 203-50 정암빌딩",
    "roadAddress": "서울특별시 마포구 동교로25길 23, 정암빌딩 1층 일부호 (동교동)",
    "districtPostal": "03992",
    "latitude": 37.55819307314388,
    "longitude": 126.92115044188128,
    "xCoordinate": 192963.263833606,
    "yCoordinate": 450638.113960595
  },
  {
    "name": "예당",
    "category": "한식",
    "city": "서울특별시",
    "district": "서초구",
    "parcelAddress": "서울특별시 서초구 서초동 1541-1 사랑의교회 13층",
    "roadAddress": "서울특별시 서초구 반포대로 121, 사랑의교회 13층 (서초동)",
    "districtPostal": "06655",
    "latitude": 37.49151950939125,
    "longitude": 127.00735065857856,
    "xCoordinate": 200579.241047228,
    "yCoordinate": 443236.01212579
  },
  {
    "name": "대성정육식당",
    "category": "한식",
    "city": "서울특별시",
    "district": "송파구",
    "parcelAddress": "서울특별시 송파구 잠실동 210-53",
    "roadAddress": "서울특별시 송파구 석촌호수로12길 1-6 (잠실동)",
    "districtPostal": "05564",
    "latitude": 37.50905078527542,
    "longitude": 127.0861320675714,
    "xCoordinate": 207543.71266559,
    "yCoordinate": 445184.948657942
  },
  {
    "name": "엘리팝 충무로점",
    "category": "경양식",
    "city": "서울특별시",
    "district": "중구",
    "parcelAddress": "서울특별시 중구 충무로4가 132-3",
    "roadAddress": "서울특별시 중구 퇴계로 209 (충무로4가)",
    "districtPostal": "04557",
    "latitude": 37.56185897832088,
    "longitude": 126.99508530565826,
    "xCoordinate": 199495.153221359,
    "yCoordinate": 451041.976434801
  },
  {
    "name": "김명자 굴국밥",
    "category": "한식",
    "city": "서울특별시",
    "district": "마포구",
    "parcelAddress": "서울특별시 마포구 도화동 173 삼창프라자빌딩",
    "roadAddress": "서울특별시 마포구 마포대로 63-8, 삼창프라자빌딩 지1층 61,62,63,64호 (도화동)",
    "districtPostal": "04157",
    "latitude": 37.542414741660366,
    "longitude": 126.94789199865085,
    "xCoordinate": 195324.793653981,
    "yCoordinate": 448885.430093289
  },
  {
    "name": "라운지목화 합정관",
    "category": "중국식",
    "city": "서울특별시",
    "district": "마포구",
    "parcelAddress": "서울특별시 마포구 서교동 399-9",
    "roadAddress": "서울특별시 마포구 양화로6길 57-12, 1층 (서교동)",
    "districtPostal": "04047",
    "latitude": 37.54927358105872,
    "longitude": 126.9178338652264,
    "xCoordinate": 192669.383194723,
    "yCoordinate": 449648.516083399
  },
  {
    "name": "이온정",
    "category": "일식",
    "city": "서울특별시",
    "district": "송파구",
    "parcelAddress": "서울특별시 송파구 문정동 634 가든파이브라이프",
    "roadAddress": "서울특별시 송파구 충민로 66, 가든파이브라이프 지하1층 T-B1042호 (문정동)",
    "districtPostal": "05838",
    "latitude": 37.47784123159178,
    "longitude": 127.125023618285,
    "xCoordinate": 210986.460698452,
    "yCoordinate": 441725.293491662
  },
  {
    "name": "원조부안집 덕성여대점",
    "category": "한식",
    "city": "서울특별시",
    "district": "강북구",
    "parcelAddress": "서울특별시 강북구 우이동 71-36 1층 102호",
    "roadAddress": "서울특별시 강북구 삼양로 533-28, 1층 102호 (우이동)",
    "districtPostal": "01009",
    "latitude": 37.65178235090234,
    "longitude": 127.01218565419776,
    "xCoordinate": 201004.619815013,
    "yCoordinate": 461021.463233256
  },
  {
    "name": "김승현스시",
    "category": "일식",
    "city": "서울특별시",
    "district": "관악구",
    "parcelAddress": "서울특별시 관악구 봉천동 1685-20",
    "roadAddress": "서울특별시 관악구 남부순환로 1913, 1층 (봉천동)",
    "districtPostal": "08742",
    "latitude": 37.47815994387568,
    "longitude": 126.96203247181808,
    "xCoordinate": 196571.376338921,
    "yCoordinate": 441754.121622412
  },
  {
    "name": "남현동김밥",
    "category": "분식",
    "city": "서울특별시",
    "district": "관악구",
    "parcelAddress": "서울특별시 관악구 남현동 1081-14",
    "roadAddress": "서울특별시 관악구 남현길 48, 1층층 (남현동)",
    "districtPostal": "08805",
    "latitude": 37.47485732503231,
    "longitude": 126.97631211688255,
    "xCoordinate": 197834.181511634,
    "yCoordinate": 441387.190238411
  },
  {
    "name": "전주집고모네",
    "category": "한식",
    "city": "서울특별시",
    "district": "관악구",
    "parcelAddress": "서울특별시 관악구 신림동 1640-38 양지순대촌",
    "roadAddress": "서울특별시 관악구 신림로59길 12, 양지순대촌 2층 201,202호 (신림동)",
    "districtPostal": "08776",
    "latitude": 37.4835187205828,
    "longitude": 126.9290483206384,
    "xCoordinate": 193654.690899311,
    "yCoordinate": 442350.522803581
  },
  {
    "name": "프롬하츠커피 신촌점",
    "category": "기타",
    "city": "서울특별시",
    "district": "서대문구",
    "parcelAddress": "서울특별시 서대문구 창천동 2-14 지하1층~지상3층",
    "roadAddress": "서울특별시 서대문구 연세로12길 19, 지하1~지상3층 (창천동)",
    "districtPostal": "03776",
    "latitude": 37.559264350068496,
    "longitude": 126.93820425660736,
    "xCoordinate": 194469.982990875,
    "yCoordinate": 450755.860259093
  },
  {
    "name": "가마치 통닭(독립문역점)",
    "category": "기타",
    "city": "서울특별시",
    "district": "서대문구",
    "parcelAddress": "서울특별시 서대문구 영천동 278",
    "roadAddress": "서울특별시 서대문구 통일로 203-1, 1층 (영천동)",
    "districtPostal": "03734",
    "latitude": 37.57150369807304,
    "longitude": 126.96086746111116,
    "xCoordinate": 196472.739619678,
    "yCoordinate": 452113.046976794
  },
  {
    "name": "마우디 브런치 바 (Maudie Brunch Bar)",
    "category": "경양식",
    "city": "서울특별시",
    "district": "서대문구",
    "parcelAddress": "서울특별시 서대문구 연희동 194-30 브라운스톤연희",
    "roadAddress": "서울특별시 서대문구 연희로 82, 브라운스톤연희 a 102호 (연희동)",
    "districtPostal": "03726",
    "latitude": 37.56547209566485,
    "longitude": 126.93019180678388,
    "xCoordinate": 193762.64108662,
    "yCoordinate": 451445.274814853
  },
  {
    "name": "본죽&비빔밥사당남현점",
    "category": "한식",
    "city": "서울특별시",
    "district": "관악구",
    "parcelAddress": "서울특별시 관악구 남현동 1058-6",
    "roadAddress": "서울특별시 관악구 남현길 7, 1층 103호 (남현동)",
    "districtPostal": "08806",
    "latitude": 37.47625703270239,
    "longitude": 126.97771756861648,
    "xCoordinate": 197958.524057933,
    "yCoordinate": 441542.490987188
  },
  {
    "name": "어바웃 포레스트",
    "category": "기타",
    "city": "서울특별시",
    "district": "강남구",
    "parcelAddress": "서울특별시 강남구 삼성동 113-24",
    "roadAddress": "서울특별시 강남구 선릉로108길 31, 지상1층 101호 (삼성동)",
    "districtPostal": "06153",
    "latitude": 37.510503867911616,
    "longitude": 127.04667175040515,
    "xCoordinate": 204055.176237698,
    "yCoordinate": 445343.77301436
  },
  {
    "name": "망원 술집",
    "category": "호프/통닭",
    "city": "서울특별시",
    "district": "마포구",
    "parcelAddress": "서울특별시 마포구 망원동 57-419",
    "roadAddress": "서울특별시 마포구 월드컵로 99-1, 1층 우측호 (망원동)",
    "districtPostal": "04012",
    "latitude": 37.55767873444924,
    "longitude": 126.90852545294725,
    "xCoordinate": 191847.837708879,
    "yCoordinate": 450582.054620428
  },
  {
    "name": "삼산회관",
    "category": "일식",
    "city": "서울특별시",
    "district": "양천구",
    "parcelAddress": "서울특별시 양천구 목동 609-22 정목빌딩",
    "roadAddress": "서울특별시 양천구 목동중앙북로7가길 10, 1층 101호 (목동, 정목빌딩)",
    "districtPostal": "07946",
    "latitude": 37.54891644277007,
    "longitude": 126.86693443828014,
    "xCoordinate": 188172.017847017,
    "yCoordinate": 449614.068537704
  },
  {
    "name": "부대냉삼 이백집",
    "category": "한식",
    "city": "서울특별시",
    "district": "강서구",
    "parcelAddress": "서울특별시 강서구 마곡동 799-4 마곡지웰타워 114,115호",
    "roadAddress": "서울특별시 강서구 공항대로 200, 마곡지웰타워 1층 114,115호 (마곡동)",
    "districtPostal": "07631",
    "latitude": 37.55917744189739,
    "longitude": 126.8294909278717,
    "xCoordinate": 184865.68815993,
    "yCoordinate": 450758.165943878
  },
  {
    "name": "화덕돌곱창 잠실직영점",
    "category": "한식",
    "city": "서울특별시",
    "district": "송파구",
    "parcelAddress": "서울특별시 송파구 잠실동 191-9 건영빌딩",
    "roadAddress": "서울특별시 송파구 백제고분로7길 24-14, 건영빌딩 1층 (잠실동)",
    "districtPostal": "05560",
    "latitude": 37.51021855700077,
    "longitude": 127.08162021907457,
    "xCoordinate": 207144.734956722,
    "yCoordinate": 445314.190415467
  },
  {
    "name": "스시J",
    "category": "일식",
    "city": "서울특별시",
    "district": "송파구",
    "parcelAddress": "서울특별시 송파구 장지동 895 송파와이즈더샵",
    "roadAddress": "서울특별시 송파구 위례광장로 270, 1층 Y-129호 (장지동, 송파와이즈더샵)",
    "districtPostal": "05852",
    "latitude": 37.47656560638848,
    "longitude": 127.1433714620106,
    "xCoordinate": 212609.377447603,
    "yCoordinate": 441586.029967716
  },
  {
    "name": "비에이치씨 한강광나루1호점",
    "category": "한식",
    "city": "서울특별시",
    "district": "강동구",
    "parcelAddress": "서울특별시 강동구 천호동 483-8",
    "roadAddress": "서울특별시 강동구 한강남자전거길 3646, 2층 (천호동)",
    "districtPostal": "05250",
    "latitude": 37.5456403688896,
    "longitude": 127.11987785105752,
    "xCoordinate": 210521.84184835,
    "yCoordinate": 449248.744901725
  },
  {
    "name": "한우짝갈비",
    "category": "식육(숯불구이)",
    "city": "서울특별시",
    "district": "강동구",
    "parcelAddress": "서울특별시 강동구 성내동 438-11",
    "roadAddress": "서울특별시 강동구 양재대로85길 30, 1층 102호 (성내동)",
    "districtPostal": "05405",
    "latitude": 37.52499513199576,
    "longitude": 127.1330864947822,
    "xCoordinate": 211692.194590204,
    "yCoordinate": 446959.181297857
  },
  {
    "name": "솔티 상일점",
    "category": "기타",
    "city": "서울특별시",
    "district": "강동구",
    "parcelAddress": "서울특별시 강동구 고덕동 210-1 고덕센트럴푸르지오",
    "roadAddress": "서울특별시 강동구 고덕로 399, 메가스퀘어동 1층 120호 (고덕동, 고덕센트럴푸르지오)",
    "districtPostal": "05222",
    "latitude": 37.55791664153775,
    "longitude": 127.17008935141368,
    "xCoordinate": 214956.131343654,
    "yCoordinate": 450617.923583608
  },
  {
    "name": "수화커피호프",
    "category": "기타",
    "city": "서울특별시",
    "district": "강동구",
    "parcelAddress": "서울특별시 강동구 성내동 407-4",
    "roadAddress": "서울특별시 강동구 천호대로170길 75, 지1층 (성내동)",
    "districtPostal": "05389",
    "latitude": 37.53233748831963,
    "longitude": 127.13211628005789,
    "xCoordinate": 211605.30413324,
    "yCoordinate": 447773.884825222
  },
  {
    "name": "알촌 마곡점",
    "category": "한식",
    "city": "서울특별시",
    "district": "강서구",
    "parcelAddress": "서울특별시 강서구 내발산동 750-10 웨스트엔드중정 106호",
    "roadAddress": "서울특별시 강서구 수명로 68-35, 웨스트엔드중정 1층 106호 (내발산동)",
    "districtPostal": "07635",
    "latitude": 37.55319464249072,
    "longitude": 126.82676004887178,
    "xCoordinate": 184623.198956871,
    "yCoordinate": 450094.659934382
  },
  {
    "name": "노북경",
    "category": "중국식",
    "city": "서울특별시",
    "district": "구로구",
    "parcelAddress": "서울특별시 구로구 가리봉동 89-158",
    "roadAddress": "서울특별시 구로구 디지털로27길 123, 1층 (가리봉동)",
    "districtPostal": "08385",
    "latitude": 37.48491000757999,
    "longitude": 126.88726254601458,
    "xCoordinate": 189959.580578261,
    "yCoordinate": 442508.556830638
  },
  {
    "name": "우드사이드커피",
    "category": "기타",
    "city": "서울특별시",
    "district": "은평구",
    "parcelAddress": "서울특별시 은평구 신사동 339-13",
    "roadAddress": "서울특별시 은평구 증산로15길 8, 1층 (신사동)",
    "districtPostal": "03448",
    "latitude": 37.58916956572694,
    "longitude": 126.91214844707775,
    "xCoordinate": 192171.215009997,
    "yCoordinate": 454076.491140097
  },
  {
    "name": "냉철한삼겹 화곡동점",
    "category": "한식",
    "city": "서울특별시",
    "district": "강서구",
    "parcelAddress": "서울특별시 강서구 화곡동 929-4 1층",
    "roadAddress": "서울특별시 강서구 강서로5나길 115, 1층 (화곡동)",
    "districtPostal": "07780",
    "latitude": 37.52832704067415,
    "longitude": 126.8417754010874,
    "xCoordinate": 185945.171101719,
    "yCoordinate": 447332.601844375
  },
  {
    "name": "오늘",
    "category": "정종/대포집/소주방",
    "city": "서울특별시",
    "district": "구로구",
    "parcelAddress": "서울특별시 구로구 구로동 650-4 SK허브수",
    "roadAddress": "서울특별시 구로구 구일로10길 27, SK허브수 A동 1층 123,124호 (구로동)",
    "districtPostal": "08323",
    "latitude": 37.49607734340775,
    "longitude": 126.87271734198696,
    "xCoordinate": 188674.995072188,
    "yCoordinate": 443749.503020388
  },
  {
    "name": "편장군족발",
    "category": "한식",
    "city": "서울특별시",
    "district": "구로구",
    "parcelAddress": "서울특별시 구로구 신도림동 692 디큐브시티",
    "roadAddress": "서울특별시 구로구 경인로 662, 지하2층 (신도림동, 디큐브시티)",
    "districtPostal": "08209",
    "latitude": 37.508782398435066,
    "longitude": 126.88889446682776,
    "xCoordinate": 190107.045415333,
    "yCoordinate": 445157.626366229
  },
  {
    "name": "제이제이",
    "category": "한식",
    "city": "서울특별시",
    "district": "성북구",
    "parcelAddress": "서울특별시 성북구 보문동7가 70",
    "roadAddress": "서울특별시 성북구 보문로13가길 7, 지1층 (보문동7가)",
    "districtPostal": "02873",
    "latitude": 37.58061666777138,
    "longitude": 127.02129569933555,
    "xCoordinate": 201810.174347432,
    "yCoordinate": 453123.821241444
  },
  {
    "name": "스시흥",
    "category": "일식",
    "city": "서울특별시",
    "district": "금천구",
    "parcelAddress": "서울특별시 금천구 시흥동 985-8 신라상가",
    "roadAddress": "서울특별시 금천구 시흥대로 149, 신라상가 2층 203호 (시흥동)",
    "districtPostal": "08638",
    "latitude": 37.447591659022144,
    "longitude": 126.90293504384162,
    "xCoordinate": 191341.238749155,
    "yCoordinate": 438365.613175801
  },
  {
    "name": "객주현 가산디지털단지역점",
    "category": "한식",
    "city": "서울특별시",
    "district": "금천구",
    "parcelAddress": "서울특별시 금천구 가산동 43-1",
    "roadAddress": "서울특별시 금천구 벚꽃로38길 5, 3층 301호 (가산동)",
    "districtPostal": "08509",
    "latitude": 37.48214147798996,
    "longitude": 126.88338326388023,
    "xCoordinate": 189616.142056546,
    "yCoordinate": 442201.740263751
  },
  {
    "name": "소울버튼 스테이지(Soulbutton stage)",
    "category": "라이브카페",
    "city": "서울특별시",
    "district": "마포구",
    "parcelAddress": "서울특별시 마포구 서교동 361-6",
    "roadAddress": "서울특별시 마포구 와우산로18길 21, 지1층 (서교동)",
    "districtPostal": "04067",
    "latitude": 37.5513539248403,
    "longitude": 126.92385590003948,
    "xCoordinate": 193201.659573033,
    "yCoordinate": 449878.932065817
  },
  {
    "name": "파라다이스 온다",
    "category": "한식",
    "city": "서울특별시",
    "district": "관악구",
    "parcelAddress": "서울특별시 관악구 봉천동 1673-7",
    "roadAddress": "서울특별시 관악구 행운1길 33, 1층 (봉천동)",
    "districtPostal": "08739",
    "latitude": 37.48042011258676,
    "longitude": 126.95727040435771,
    "xCoordinate": 196150.332139555,
    "yCoordinate": 442005.12738749
  },
  {
    "name": "사부링",
    "category": "한식",
    "city": "서울특별시",
    "district": "관악구",
    "parcelAddress": "서울특별시 관악구 신림동 1433-102",
    "roadAddress": "서울특별시 관악구 남부순환로 1591, 2층 (신림동)",
    "districtPostal": "08759",
    "latitude": 37.484427950879,
    "longitude": 126.92737118894806,
    "xCoordinate": 193506.453613619,
    "yCoordinate": 442451.538877664
  },
  {
    "name": "씨에씨에 마라탕",
    "category": "한식",
    "city": "서울특별시",
    "district": "관악구",
    "parcelAddress": "서울특별시 관악구 봉천동 1717-3 관악푸르지오",
    "roadAddress": "서울특별시 관악구 청림6길 3, 관악푸르지오 제상가동 제지1층 제비101(13)호 (봉천동)",
    "districtPostal": "08734",
    "latitude": 37.48779076963823,
    "longitude": 126.95991471016424,
    "xCoordinate": 196384.544308046,
    "yCoordinate": 442822.980265735
  },
  {
    "name": "정담가옥",
    "category": "한식",
    "city": "서울특별시",
    "district": "강남구",
    "parcelAddress": "서울특별시 강남구 논현동 10-7",
    "roadAddress": "서울특별시 강남구 논현로149길 31, 1동 지상1층 101-1호 (논현동)",
    "districtPostal": "06040",
    "latitude": 37.51792868497535,
    "longitude": 127.02596793627774,
    "xCoordinate": 202224.687390502,
    "yCoordinate": 446167.05438459
  },
  {
    "name": "솔솥",
    "category": "한식",
    "city": "서울특별시",
    "district": "서초구",
    "parcelAddress": "서울특별시 서초구 서초동 1570-4",
    "roadAddress": "서울특별시 서초구 반포대로26길 63, 요단빌딩 1층 (서초동)",
    "districtPostal": "06645",
    "latitude": 37.49166677077268,
    "longitude": 127.01250031466368,
    "xCoordinate": 201034.596619588,
    "yCoordinate": 443252.398599809
  },
  {
    "name": "밀팅's 샌드위치",
    "category": "경양식",
    "city": "서울특별시",
    "district": "서초구",
    "parcelAddress": "서울특별시 서초구 반포동 51-12 지하1층 11호",
    "roadAddress": "서울특별시 서초구 서초중앙로 215, 지하1층 11호 (반포동)",
    "districtPostal": "06593",
    "latitude": 37.50102001576842,
    "longitude": 127.01167259555513,
    "xCoordinate": 200961.285921939,
    "yCoordinate": 444290.367052389
  },
  {
    "name": "류의 집",
    "category": "일식",
    "city": "서울특별시",
    "district": "서초구",
    "parcelAddress": "서울특별시 서초구 양재동 8-31 대경빌딩",
    "roadAddress": "서울특별시 서초구 바우뫼로41길 77, 1층 101호 (양재동)",
    "districtPostal": "06742",
    "latitude": 37.48408846594531,
    "longitude": 127.03977471588703,
    "xCoordinate": 203446.675140157,
    "yCoordinate": 442412.045813754
  },
  {
    "name": "낙성대 호프",
    "category": "한식",
    "city": "서울특별시",
    "district": "관악구",
    "parcelAddress": "서울특별시 관악구 봉천동 1628-29",
    "roadAddress": "서울특별시 관악구 낙성대로 15, 1층 (봉천동)",
    "districtPostal": "08792",
    "latitude": 37.47731961233448,
    "longitude": 126.9593972903202,
    "xCoordinate": 196338.278279396,
    "yCoordinate": 441660.965249239
  },
  {
    "name": "이수간짜장",
    "category": "기타",
    "city": "서울특별시",
    "district": "동작구",
    "parcelAddress": "서울특별시 동작구 사당동 141-175",
    "roadAddress": "서울특별시 동작구 사당로29다길 2, 2층 (사당동)",
    "districtPostal": "07007",
    "latitude": 37.487198387699365,
    "longitude": 126.97960234110872,
    "xCoordinate": 198125.492060002,
    "yCoordinate": 442756.666691433
  },
  {
    "name": "더 난곡 카페",
    "category": "한식",
    "city": "서울특별시",
    "district": "관악구",
    "parcelAddress": "서울특별시 관악구 신림동 646-131",
    "roadAddress": "서울특별시 관악구 난곡로24가길 53, 1층 (신림동)",
    "districtPostal": "08856",
    "latitude": 37.46963713506023,
    "longitude": 126.92359286618652,
    "xCoordinate": 193170.97853227,
    "yCoordinate": 440810.39899547
  },
  {
    "name": "수미식당",
    "category": "중국식",
    "city": "서울특별시",
    "district": "영등포구",
    "parcelAddress": "서울특별시 영등포구 대림동 706-17 대림빌딩",
    "roadAddress": "서울특별시 영등포구 도림로 140, 대림빌딩 지하1층 B101호 (대림동)",
    "districtPostal": "07417",
    "latitude": 37.49335091542683,
    "longitude": 126.89766178048426,
    "xCoordinate": 190880.239096486,
    "yCoordinate": 443444.22840271
  },
  {
    "name": "사케바신콘",
    "category": "일식",
    "city": "서울특별시",
    "district": "마포구",
    "parcelAddress": "서울특별시 마포구 동교동 147-48",
    "roadAddress": "서울특별시 마포구 양화로23길 10-10, 1층 일부호 (동교동)",
    "districtPostal": "03985",
    "latitude": 37.55950370633288,
    "longitude": 126.925765028524,
    "xCoordinate": 193371.061225046,
    "yCoordinate": 450783.227713331
  },
  {
    "name": "야키도리 수다",
    "category": "일식",
    "city": "서울특별시",
    "district": "강남구",
    "parcelAddress": "서울특별시 강남구 삼성동 153-29",
    "roadAddress": "서울특별시 강남구 테헤란로87길 57, 지하1층 (삼성동)",
    "districtPostal": "06166",
    "latitude": 37.51148674776334,
    "longitude": 127.0572184169756,
    "xCoordinate": 204987.462329279,
    "yCoordinate": 445453.355251637
  },
  {
    "name": "압집",
    "category": "경양식",
    "city": "서울특별시",
    "district": "강남구",
    "parcelAddress": "서울특별시 강남구 신사동 657-30",
    "roadAddress": "서울특별시 강남구 도산대로51길 42, 지상2층 (신사동)",
    "districtPostal": "06018",
    "latitude": 37.52607433196032,
    "longitude": 127.03835422157144,
    "xCoordinate": 203319.196326473,
    "yCoordinate": 447071.387250871
  },
  {
    "name": "카페마마스 키친 역삼센터필드점",
    "category": "기타",
    "city": "서울특별시",
    "district": "강남구",
    "parcelAddress": "서울특별시 강남구 역삼동 676 센터필드",
    "roadAddress": "서울특별시 강남구 테헤란로 231, 센터필드 더샵스앤센터필드 지하2층 WB54호 (역삼동)",
    "districtPostal": "06142",
    "latitude": 37.50340768740525,
    "longitude": 127.04150838689492,
    "xCoordinate": 203599.062771687,
    "yCoordinate": 444556.062267296
  },
  {
    "name": "푸에르코 숭례문점",
    "category": "한식",
    "city": "서울특별시",
    "district": "중구",
    "parcelAddress": "서울특별시 중구 남대문로5가 831",
    "roadAddress": "서울특별시 중구 세종대로 14, 2층 201호 (남대문로5가)",
    "districtPostal": "04527",
    "latitude": 37.55808017362184,
    "longitude": 126.97438768840613,
    "xCoordinate": 197666.569166046,
    "yCoordinate": 450622.931217442
  },
  {
    "name": "유한(YOUHAN)",
    "category": "외국음식전문점(인도,태국등)",
    "city": "서울특별시",
    "district": "용산구",
    "parcelAddress": "서울특별시 용산구 한남동 684-94",
    "roadAddress": "서울특별시 용산구 대사관로5길 10-5, 1층 (한남동)",
    "districtPostal": "04400",
    "latitude": 37.53502883162532,
    "longitude": 127.00109524604112,
    "xCoordinate": 200026.091937656,
    "yCoordinate": 448064.456879232
  },
  {
    "name": "보리일가",
    "category": "한식",
    "city": "서울특별시",
    "district": "성동구",
    "parcelAddress": "서울특별시 성동구 도선동 343-11",
    "roadAddress": "서울특별시 성동구 왕십리로30길 2-1, 1층 (도선동)",
    "districtPostal": "04707",
    "latitude": 37.564831381834985,
    "longitude": 127.03098515256448,
    "xCoordinate": 202666.506877842,
    "yCoordinate": 451372.255803611
  },
  {
    "name": "아지트",
    "category": "기타",
    "city": "서울특별시",
    "district": "성동구",
    "parcelAddress": "서울특별시 성동구 도선동 68 장성빌딩",
    "roadAddress": "서울특별시 성동구 무학로2길 46, 장성빌딩 2층 (도선동)",
    "districtPostal": "04709",
    "latitude": 37.56265703049313,
    "longitude": 127.03459030425267,
    "xCoordinate": 202985.06683232,
    "yCoordinate": 451131.062597967
  },
  {
    "name": "김치찜에진심",
    "category": "기타",
    "city": "서울특별시",
    "district": "광진구",
    "parcelAddress": "서울특별시 광진구 화양동 500-3 1층",
    "roadAddress": "서울특별시 광진구 능동로16길 35, 1층 (화양동)",
    "districtPostal": "05021",
    "latitude": 37.545255602638285,
    "longitude": 127.07503992865898,
    "xCoordinate": 206559.949702901,
    "yCoordinate": 449201.971981633
  },
  {
    "name": "부오이카페",
    "category": "기타",
    "city": "서울특별시",
    "district": "광진구",
    "parcelAddress": "서울특별시 광진구 자양동 57-68 1층",
    "roadAddress": "서울특별시 광진구 뚝섬로24길 40, 1층 (자양동)",
    "districtPostal": "05083",
    "latitude": 37.53494548675006,
    "longitude": 127.06296093260414,
    "xCoordinate": 205493.388021995,
    "yCoordinate": 448057.0230773
  },
  {
    "name": "더꼬치다(구의점)",
    "category": "한식",
    "city": "서울특별시",
    "district": "광진구",
    "parcelAddress": "서울특별시 광진구 구의동 211-3 1층",
    "roadAddress": "서울특별시 광진구 아차산로65길 11, 1층 (구의동)",
    "districtPostal": "05035",
    "latitude": 37.54114091976378,
    "longitude": 127.09390880694944,
    "xCoordinate": 208227.684165199,
    "yCoordinate": 448746.824686171
  },
  {
    "name": "남원골",
    "category": "한식",
    "city": "서울특별시",
    "district": "노원구",
    "parcelAddress": "서울특별시 노원구 상계동 1321 건영아파트",
    "roadAddress": "서울특별시 노원구 덕릉로115다길 40, 지상1층 103호, 104호 (상계동, 건영아파트)",
    "districtPostal": "01638",
    "latitude": 37.66877217694648,
    "longitude": 127.07813902090513,
    "xCoordinate": 206822.49898149,
    "yCoordinate": 462909.715938659
  },
  {
    "name": "인생아구찜",
    "category": "한식",
    "city": "서울특별시",
    "district": "노원구",
    "parcelAddress": "서울특별시 노원구 상계동 434-22 거목미술학원",
    "roadAddress": "서울특별시 노원구 한글비석로47길 67, 거목미술학원 지상1층 좌측호 (상계동)",
    "districtPostal": "01685",
    "latitude": 37.66129420777446,
    "longitude": 127.06674521077062,
    "xCoordinate": 205817.972062411,
    "yCoordinate": 462079.055763534
  },
  {
    "name": "의생명연구원 카페테리아",
    "category": "한식",
    "city": "서울특별시",
    "district": "종로구",
    "parcelAddress": "서울특별시 종로구 연건동 28-21 의생명연구원 1층",
    "roadAddress": "서울특별시 종로구 대학로 101, 의생명연구원 1층 (연건동)",
    "districtPostal": "03080",
    "latitude": 37.57936176251928,
    "longitude": 126.99880836006297,
    "xCoordinate": 199824.095974723,
    "yCoordinate": 452984.360451452
  },
  {
    "name": "백만축산 정육식당",
    "category": "한식",
    "city": "서울특별시",
    "district": "송파구",
    "parcelAddress": "서울특별시 송파구 가락동 191-6 중원빌딩",
    "roadAddress": "서울특별시 송파구 오금로46길 28, 중원빌딩 1층 (가락동)",
    "districtPostal": "05783",
    "latitude": 37.49548794606728,
    "longitude": 127.13437226219474,
    "xCoordinate": 211810.486043327,
    "yCoordinate": 443684.769200157
  },
  {
    "name": "스트릿 파르나스몰점",
    "category": "외국음식전문점(인도,태국등)",
    "city": "서울특별시",
    "district": "강남구",
    "parcelAddress": "서울특별시 강남구 삼성동 159-8 파르나스타워",
    "roadAddress": "서울특별시 강남구 테헤란로 521, 파르나스타워 지하1층 F-9,10호 (삼성동)",
    "districtPostal": "06164",
    "latitude": 37.50924437506239,
    "longitude": 127.06091223704156,
    "xCoordinate": 205314.159889285,
    "yCoordinate": 445204.709309676
  },
  {
    "name": "돈의 정석",
    "category": "한식",
    "city": "서울특별시",
    "district": "은평구",
    "parcelAddress": "서울특별시 은평구 대조동 171-27 부성빌딩",
    "roadAddress": "서울특별시 은평구 역말로9길 5, 부성빌딩 1층 (대조동)",
    "districtPostal": "03393",
    "latitude": 37.611649152171296,
    "longitude": 126.92161544291255,
    "xCoordinate": 193009.345631343,
    "yCoordinate": 456570.462942658
  },
  {
    "name": "멘노아지",
    "category": "일식",
    "city": "서울특별시",
    "district": "강남구",
    "parcelAddress": "서울특별시 강남구 역삼동 635-13",
    "roadAddress": "서울특별시 강남구 강남대로94길 27, 지상1층 (역삼동)",
    "districtPostal": "06130",
    "latitude": 37.50007467602419,
    "longitude": 127.0294688897337,
    "xCoordinate": 202534.753331227,
    "yCoordinate": 444185.788336022
  },
  {
    "name": "황실짜장",
    "category": "중국식",
    "city": "서울특별시",
    "district": "강동구",
    "parcelAddress": "서울특별시 강동구 천호동 34-6",
    "roadAddress": "서울특별시 강동구 상암로 183, 1층 105,106호 (천호동)",
    "districtPostal": "05307",
    "latitude": 37.54671296839647,
    "longitude": 127.1426410025986,
    "xCoordinate": 212533.038823469,
    "yCoordinate": 449370.568731204
  },
  {
    "name": "시그니처커피2호점",
    "category": "기타",
    "city": "서울특별시",
    "district": "관악구",
    "parcelAddress": "서울특별시 관악구 신림동 1478-37 흥원아파트",
    "roadAddress": "서울특별시 관악구 남부순환로144길 71, 1층 2호 (신림동, 흥원아파트)",
    "districtPostal": "08771",
    "latitude": 37.47839181888277,
    "longitude": 126.9134878301728,
    "xCoordinate": 192278.082074793,
    "yCoordinate": 441782.728102649
  },
  {
    "name": "아우라",
    "category": "한식",
    "city": "서울특별시",
    "district": "서초구",
    "parcelAddress": "서울특별시 서초구 방배동 452-6 지하1층",
    "roadAddress": "서울특별시 서초구 방배천로4길 1, 지하1층 (방배동)",
    "districtPostal": "06692",
    "latitude": 37.47852747215057,
    "longitude": 126.98287614327248,
    "xCoordinate": 198414.811048893,
    "yCoordinate": 441794.353073883
  },
  {
    "name": "더텐더비",
    "category": "기타",
    "city": "서울특별시",
    "district": "도봉구",
    "parcelAddress": "서울특별시 도봉구 방학동 716-1 ESA 아파트",
    "roadAddress": "서울특별시 도봉구 도봉로150길 31, 115호 (방학동, ESA 아파트)",
    "districtPostal": "01332",
    "latitude": 37.66677413208821,
    "longitude": 127.0449009734758,
    "xCoordinate": 203890.492709829,
    "yCoordinate": 462686.077387621
  },
  {
    "name": "마라펀치",
    "category": "호프/통닭",
    "city": "서울특별시",
    "district": "관악구",
    "parcelAddress": "서울특별시 관악구 봉천동 634-15",
    "roadAddress": "서울특별시 관악구 국회단지길 30, 2층 (봉천동)",
    "districtPostal": "08716",
    "latitude": 37.48763696692009,
    "longitude": 126.94009611961953,
    "xCoordinate": 194631.989975755,
    "yCoordinate": 442806.857579701
  },
  {
    "name": "할리스 목동삼성쉐르빌점",
    "category": "기타",
    "city": "서울특별시",
    "district": "양천구",
    "parcelAddress": "서울특별시 양천구 신정동 318-10 삼성 쉐르빌1",
    "roadAddress": "서울특별시 양천구 목동동로 189, 1층 101,102,103호 (신정동, 삼성 쉐르빌1)",
    "districtPostal": "08011",
    "latitude": 37.52286207605882,
    "longitude": 126.87042632278572,
    "xCoordinate": 188476.542548546,
    "yCoordinate": 446722.227911855
  },
  {
    "name": "굿가이즈",
    "category": "기타",
    "city": "서울특별시",
    "district": "동대문구",
    "parcelAddress": "서울특별시 동대문구 휘경동 294-317",
    "roadAddress": "서울특별시 동대문구 망우로18다길 37, 지하1층 (휘경동)",
    "districtPostal": "02498",
    "latitude": 37.58588296804926,
    "longitude": 127.06099643411392,
    "xCoordinate": 205316.157695405,
    "yCoordinate": 453709.763913582
  },
  {
    "name": "더(the)스시",
    "category": "일식",
    "city": "서울특별시",
    "district": "중랑구",
    "parcelAddress": "서울특별시 중랑구 망우동 0",
    "roadAddress": "서울특별시 중랑구 양원역로14길 7, 102호 (망우동)",
    "districtPostal": "02057",
    "latitude": 37.60754453646721,
    "longitude": 127.10662196528858,
    "xCoordinate": 209342.800101399,
    "yCoordinate": 456117.261043026
  },
  {
    "name": "삼겹살 역",
    "category": "한식",
    "city": "서울특별시",
    "district": "도봉구",
    "parcelAddress": "서울특별시 도봉구 쌍문동 88-39 1층 코너점포",
    "roadAddress": "서울특별시 도봉구 도봉로113길 12, 1층 (쌍문동)",
    "districtPostal": "01443",
    "latitude": 37.6483935957915,
    "longitude": 127.03356852271902,
    "xCoordinate": 202891.481063704,
    "yCoordinate": 460645.830108291
  },
  {
    "name": "88노가리 강남",
    "category": "호프/통닭",
    "city": "서울특별시",
    "district": "강남구",
    "parcelAddress": "서울특별시 강남구 역삼동 818-4",
    "roadAddress": "서울특별시 강남구 강남대로96길 18, 지상2층 (역삼동)",
    "districtPostal": "06129",
    "latitude": 37.50006145913201,
    "longitude": 127.0284961410721,
    "xCoordinate": 202448.748410546,
    "yCoordinate": 444184.29583607
  },
  {
    "name": "안준마라공방",
    "category": "중국식",
    "city": "서울특별시",
    "district": "강동구",
    "parcelAddress": "서울특별시 강동구 암사동 513",
    "roadAddress": "서울특별시 강동구 상암로4길 29, 1층 103호 (암사동)",
    "districtPostal": "05242",
    "latitude": 37.54939106330031,
    "longitude": 127.12629944238178,
    "xCoordinate": 211088.704897744,
    "yCoordinate": 449665.720438085
  },
  {
    "name": "마린박스",
    "category": "일식",
    "city": "서울특별시",
    "district": "용산구",
    "parcelAddress": "서울특별시 용산구 한강로2가 422 래미안용산 더 센트럴",
    "roadAddress": "서울특별시 용산구 한강대로 95, 지하1층 B154호 (한강로2가, 래미안용산 더 센트럴)",
    "districtPostal": "04378",
    "latitude": 37.52930781945171,
    "longitude": 126.9669885876942,
    "xCoordinate": 197011.737528847,
    "yCoordinate": 447430.100250997
  },
  {
    "name": "돈맛탱 천호점",
    "category": "한식",
    "city": "서울특별시",
    "district": "강동구",
    "parcelAddress": "서울특별시 강동구 천호동 106-11",
    "roadAddress": "서울특별시 강동구 천중로29길 28, 1층 101호 (천호동)",
    "districtPostal": "05317",
    "latitude": 37.54326747300823,
    "longitude": 127.13695115243868,
    "xCoordinate": 212030.838399088,
    "yCoordinate": 448987.457868823
  },
  {
    "name": "마약낙곱새 성산점",
    "category": "한식",
    "city": "서울특별시",
    "district": "마포구",
    "parcelAddress": "서울특별시 마포구 성산동 142-21",
    "roadAddress": "서울특별시 마포구 월드컵북로 191, 1층 (성산동)",
    "districtPostal": "03940",
    "latitude": 37.56836819568935,
    "longitude": 126.90737670525054,
    "xCoordinate": 191747.528688266,
    "yCoordinate": 451768.432610804
  },
  {
    "name": "잇웰",
    "category": "한식",
    "city": "서울특별시",
    "district": "서대문구",
    "parcelAddress": "서울특별시 서대문구 연희동 194-24",
    "roadAddress": "서울특별시 서대문구 연희로8길 24, 1층 (연희동)",
    "districtPostal": "03726",
    "latitude": 37.56532439649998,
    "longitude": 126.93129899129416,
    "xCoordinate": 193860.435008837,
    "yCoordinate": 451428.810784121
  },
  {
    "name": "아크페브(akFeb)",
    "category": "기타",
    "city": "서울특별시",
    "district": "용산구",
    "parcelAddress": "서울특별시 용산구 용산동2가 24-17",
    "roadAddress": "서울특별시 용산구 신흥로 62, 1층 (용산동2가)",
    "districtPostal": "04339",
    "latitude": 37.54404303564563,
    "longitude": 126.98741148215107,
    "xCoordinate": 198816.951717906,
    "yCoordinate": 449064.900499226
  },
  {
    "name": "마이크로 브레이크 커피(micro break coffee)",
    "category": "기타",
    "city": "서울특별시",
    "district": "서초구",
    "parcelAddress": "서울특별시 서초구 양재동 355-13 대진빌딩 1층 101호",
    "roadAddress": "서울특별시 서초구 강남대로6길 36-1, 대진빌딩 1층 101호 (양재동)",
    "districtPostal": "06788",
    "latitude": 37.4677655830721,
    "longitude": 127.0431888695063,
    "xCoordinate": 203749.416490094,
    "yCoordinate": 440600.748970729
  },
  {
    "name": "니쿠니쿠",
    "category": "일식",
    "city": "서울특별시",
    "district": "강남구",
    "parcelAddress": "서울특별시 강남구 역삼동 825-24",
    "roadAddress": "서울특별시 강남구 강남대로84길 15, 지하1층 B109호 (역삼동)",
    "districtPostal": "06232",
    "latitude": 37.49722248975656,
    "longitude": 127.02978423428578,
    "xCoordinate": 202562.731919583,
    "yCoordinate": 443869.275108259
  },
  {
    "name": "오르새피자",
    "category": "경양식",
    "city": "서울특별시",
    "district": "은평구",
    "parcelAddress": "서울특별시 은평구 역촌동 2-55",
    "roadAddress": "서울특별시 은평구 역말로 101, 1층 2호 (역촌동)",
    "districtPostal": "03398",
    "latitude": 37.60867408261433,
    "longitude": 126.92009916917394,
    "xCoordinate": 192875.200530534,
    "yCoordinate": 456240.411867385
  },
  {
    "name": "단쇼우 이자카야",
    "category": "한식",
    "city": "서울특별시",
    "district": "동작구",
    "parcelAddress": "서울특별시 동작구 사당동 1019-19",
    "roadAddress": "서울특별시 동작구 동작대로9길 4, 1층 103호 (사당동)",
    "districtPostal": "07014",
    "latitude": 37.48089703731437,
    "longitude": 126.98133201433129,
    "xCoordinate": 198278.302387539,
    "yCoordinate": 442057.34216369
  },
  {
    "name": "죽이야기 세계로병원점",
    "category": "한식",
    "city": "서울특별시",
    "district": "송파구",
    "parcelAddress": "서울특별시 송파구 거여동 604",
    "roadAddress": "서울특별시 송파구 위례서로 248, 1층 109호 (거여동)",
    "districtPostal": "05790",
    "latitude": 37.48680653358069,
    "longitude": 127.14228585240257,
    "xCoordinate": 212511.655622483,
    "yCoordinate": 442722.371081852
  },
  {
    "name": "크로바커피호프",
    "category": "호프/통닭",
    "city": "서울특별시",
    "district": "도봉구",
    "parcelAddress": "서울특별시 도봉구 방학동 658-53",
    "roadAddress": "서울특별시 도봉구 도당로 131, 지하 1층 (방학동)",
    "districtPostal": "01352",
    "latitude": 37.66770121151316,
    "longitude": 127.040813665666,
    "xCoordinate": 203529.8753124,
    "yCoordinate": 462788.801361197
  },
  {
    "name": "홀트(halt)",
    "category": "기타",
    "city": "서울특별시",
    "district": "용산구",
    "parcelAddress": "서울특별시 용산구 원효로2가 1-49",
    "roadAddress": "서울특별시 용산구 백범로 324, 1층 (원효로2가)",
    "districtPostal": "04364",
    "latitude": 37.538390192718246,
    "longitude": 126.96485201053396,
    "xCoordinate": 196823.291476878,
    "yCoordinate": 448438.093933794
  },
  {
    "name": "오복소바",
    "category": "일식",
    "city": "서울특별시",
    "district": "마포구",
    "parcelAddress": "서울특별시 마포구 상암동 1605 누리꿈스퀘어",
    "roadAddress": "서울특별시 마포구 월드컵북로 396, 누리꿈스퀘어 지1층 B1076-2호 (상암동)",
    "districtPostal": "03925",
    "latitude": 37.57961209754996,
    "longitude": 126.89041703184768,
    "xCoordinate": 190250.875091908,
    "yCoordinate": 453017.867202928
  },
  {
    "name": "요거트 아이스크림의 정석",
    "category": "기타",
    "city": "서울특별시",
    "district": "은평구",
    "parcelAddress": "서울특별시 은평구 갈현동 390-3 (일층코너)",
    "roadAddress": "서울특별시 은평구 통일로 931, 1층 (갈현동)",
    "districtPostal": "03328",
    "latitude": 37.62626039965912,
    "longitude": 126.9197696041573,
    "xCoordinate": 192847.789128904,
    "yCoordinate": 458192.120599854
  },
  {
    "name": "땅땅치킨(시흥점)",
    "category": "호프/통닭",
    "city": "서울특별시",
    "district": "금천구",
    "parcelAddress": "서울특별시 금천구 시흥동 896-31",
    "roadAddress": "서울특별시 금천구 독산로 41, 지상1층 일부호 (시흥동)",
    "districtPostal": "08630",
    "latitude": 37.451224409022174,
    "longitude": 126.90575910872344,
    "xCoordinate": 191591.509170286,
    "yCoordinate": 438768.49913036
  },
  {
    "name": "JACKJACK",
    "category": "기타",
    "city": "서울특별시",
    "district": "용산구",
    "parcelAddress": "서울특별시 용산구 이태원동 292-2",
    "roadAddress": "서울특별시 용산구 회나무로6길 19, 1층 (이태원동)",
    "districtPostal": "04345",
    "latitude": 37.5382745378499,
    "longitude": 126.98888972263708,
    "xCoordinate": 198947.492250997,
    "yCoordinate": 448424.718494717
  },
  {
    "name": "버텍스 봉천점",
    "category": "기타",
    "city": "서울특별시",
    "district": "관악구",
    "parcelAddress": "서울특별시 관악구 봉천동 911-2",
    "roadAddress": "서울특별시 관악구 봉천로35길 8, 1층 (봉천동)",
    "districtPostal": "08752",
    "latitude": 37.48357800310748,
    "longitude": 126.94521348627984,
    "xCoordinate": 195084.249927282,
    "yCoordinate": 442356.134974429
  },
  {
    "name": "우리할매떡볶이 가재울점",
    "category": "기타",
    "city": "서울특별시",
    "district": "서대문구",
    "parcelAddress": "서울특별시 서대문구 남가좌동 389 DMC에코자이 단지내상가 B2층 103동 114호",
    "roadAddress": "서울특별시 서대문구 거북골로 84, 단지내상가 103동 B2층 114호 (남가좌동, DMC에코자이)",
    "districtPostal": "03687",
    "latitude": 37.57745437921408,
    "longitude": 126.91902330780776,
    "xCoordinate": 192777.199694959,
    "yCoordinate": 452775.826967308
  },
  {
    "name": "딜리샵(Deli#)",
    "category": "기타",
    "city": "서울특별시",
    "district": "강동구",
    "parcelAddress": "서울특별시 강동구 암사동 489-78",
    "roadAddress": "서울특별시 강동구 구천면로47길 15, 1층 (암사동)",
    "districtPostal": "05265",
    "latitude": 37.548997347879,
    "longitude": 127.13503919135084,
    "xCoordinate": 211860.982205202,
    "yCoordinate": 449623.094148302
  },
  {
    "name": "잇잇",
    "category": "분식",
    "city": "서울특별시",
    "district": "송파구",
    "parcelAddress": "서울특별시 송파구 가락동 913 헬리오시티",
    "roadAddress": "서울특별시 송파구 송파대로 345, 1A동 지하1층 148-3호 (가락동, 헬리오시티)",
    "districtPostal": "05698",
    "latitude": 37.49771431453583,
    "longitude": 127.10725167195442,
    "xCoordinate": 209412.197809542,
    "yCoordinate": 443928.783342251
  },
  {
    "name": "서울초밥",
    "category": "일식",
    "city": "서울특별시",
    "district": "양천구",
    "parcelAddress": "서울특별시 양천구 목동 908 광장종합상가3, 1층 104호,105호",
    "roadAddress": "서울특별시 양천구 목동서로 49, 광장종합상가3 1층 104호,105호 (목동)",
    "districtPostal": "07984",
    "latitude": 37.53728749362881,
    "longitude": 126.88053413629946,
    "xCoordinate": 189371.998478153,
    "yCoordinate": 448321.909806254
  },
  {
    "name": "엠블링크(M'Brink)",
    "category": "기타",
    "city": "서울특별시",
    "district": "광진구",
    "parcelAddress": "서울특별시 광진구 자양동 861 자양 호반써밋",
    "roadAddress": "서울특별시 광진구 능동로 69, 1층 144호 (자양동, 자양 호반써밋)",
    "districtPostal": "05074",
    "latitude": 37.537672263212364,
    "longitude": 127.06886122852217,
    "xCoordinate": 206014.599715389,
    "yCoordinate": 448359.990459515
  },
  {
    "name": "비에이치씨 강일뉴타운점",
    "category": "호프/통닭",
    "city": "서울특별시",
    "district": "강동구",
    "parcelAddress": "서울특별시 강동구 강일동 677-3 트리피움오피스텔",
    "roadAddress": "서울특별시 강동구 아리수로91길 28, 트리피움오피스텔 1층 101호 (강일동)",
    "districtPostal": "05211",
    "latitude": 37.56527523417004,
    "longitude": 127.17306363604646,
    "xCoordinate": 215217.40259223,
    "yCoordinate": 451435.031470143
  },
  {
    "name": "기쁨수산",
    "category": "횟집",
    "city": "서울특별시",
    "district": "은평구",
    "parcelAddress": "서울특별시 은평구 녹번동 131-159 영선빌딩 1층",
    "roadAddress": "서울특별시 은평구 진흥로 154, 영선빌딩 1층 (녹번동)",
    "districtPostal": "03375",
    "latitude": 37.60891284206406,
    "longitude": 126.9268408955699,
    "xCoordinate": 193470.425385241,
    "yCoordinate": 456266.418488113
  },
  {
    "name": "한식의품격 광진점",
    "category": "한식",
    "city": "서울특별시",
    "district": "광진구",
    "parcelAddress": "서울특별시 광진구 화양동 111-12 빌리브 인테라스",
    "roadAddress": "서울특별시 광진구 능동로 172, 빌리브 인테라스 2층 204호 (화양동)",
    "districtPostal": "05021",
    "latitude": 37.546195624035775,
    "longitude": 127.07401393827854,
    "xCoordinate": 206469.210431409,
    "yCoordinate": 449306.220747298
  },
  {
    "name": "아비꼬+가락공장 월계점",
    "category": "경양식",
    "city": "서울특별시",
    "district": "노원구",
    "parcelAddress": "서울특별시 노원구 월계동 333-1 월계이마트",
    "roadAddress": "서울특별시 노원구 마들로3길 15, 월계이마트 2층 (월계동)",
    "districtPostal": "01906",
    "latitude": 37.627550767984765,
    "longitude": 127.0618787549199,
    "xCoordinate": 205391.070378059,
    "yCoordinate": 458333.989216339
  },
  {
    "name": "에이원(A1)",
    "category": "한식",
    "city": "서울특별시",
    "district": "마포구",
    "parcelAddress": "서울특별시 마포구 서교동 358-36 서교빌딩",
    "roadAddress": "서울특별시 마포구 와우산로21길 14, 서교빌딩 지하1층 일부호 (서교동)",
    "districtPostal": "04040",
    "latitude": 37.55268365747342,
    "longitude": 126.92314880849466,
    "xCoordinate": 193139.306893387,
    "yCoordinate": 450026.55206161
  },
  {
    "name": "일류국수",
    "category": "한식",
    "city": "서울특별시",
    "district": "강북구",
    "parcelAddress": "서울특별시 강북구 수유동 402-8",
    "roadAddress": "서울특별시 강북구 삼양로 362, 1층 (수유동)",
    "districtPostal": "01082",
    "latitude": 37.64384847439879,
    "longitude": 127.02202977777162,
    "xCoordinate": 201873.421060318,
    "yCoordinate": 460141.12898254
  },
  {
    "name": "밥풀릭스 독산점",
    "category": "식육(숯불구이)",
    "city": "서울특별시",
    "district": "금천구",
    "parcelAddress": "서울특별시 금천구 독산동 291-5 시티렉스",
    "roadAddress": "서울특별시 금천구 시흥대로 399, 시티렉스 지상1층 117호 (독산동)",
    "districtPostal": "08584",
    "latitude": 37.46960042299504,
    "longitude": 126.89745033468978,
    "xCoordinate": 190858.649482406,
    "yCoordinate": 440808.541334678
  },
  {
    "name": "힐링타임365",
    "category": "호프/통닭",
    "city": "서울특별시",
    "district": "종로구",
    "parcelAddress": "서울특별시 종로구 인사동 37번지 3층 ",
    "roadAddress": "서울특별시 종로구 인사동길 16 (인사동,3층)",
    "districtPostal": "03163",
    "latitude": 37.572535328133526,
    "longitude": 126.9868887938281,
    "xCoordinate": 198771.23343518,
    "yCoordinate": 452226.87515513
  },
  {
    "name": "해피유어데이",
    "category": "기타",
    "city": "서울특별시",
    "district": "강동구",
    "parcelAddress": "서울특별시 강동구 천호동 25-39",
    "roadAddress": "서울특별시 강동구 양재대로135길 4-23, 1층 104호 (천호동)",
    "districtPostal": "05306",
    "latitude": 37.549919201759245,
    "longitude": 127.14328961242548,
    "xCoordinate": 212589.810596332,
    "yCoordinate": 449726.470848707
  },
  {
    "name": "춘만두",
    "category": "한식",
    "city": "서울특별시",
    "district": "강남구",
    "parcelAddress": "서울특별시 강남구 역삼동 789-1",
    "roadAddress": "서울특별시 강남구 역삼로14길 3, 지상1층 (역삼동)",
    "districtPostal": "06249",
    "latitude": 37.49453224670741,
    "longitude": 127.035448517471,
    "xCoordinate": 203063.667182529,
    "yCoordinate": 443570.894439032
  },
  {
    "name": "그때그시절인생역전",
    "category": "호프/통닭",
    "city": "서울특별시",
    "district": "중랑구",
    "parcelAddress": "서울특별시 중랑구 면목동 72-57",
    "roadAddress": "서울특별시 중랑구 겸재로 218, 1층 (면목동)",
    "districtPostal": "02199",
    "latitude": 37.589317289072966,
    "longitude": 127.09193843647856,
    "xCoordinate": 208048.384873167,
    "yCoordinate": 454093.095200938
  },
  {
    "name": "본죽동부이촌동점",
    "category": "한식",
    "city": "서울특별시",
    "district": "용산구",
    "parcelAddress": "서울특별시 용산구 이촌동 302-68 기업은행 1층 115호",
    "roadAddress": "서울특별시 용산구 이촌로 182, 기업은행 1층 115호 (이촌동)",
    "districtPostal": "04427",
    "latitude": 37.52137638602481,
    "longitude": 126.9673603038316,
    "xCoordinate": 197044.277002519,
    "yCoordinate": 446549.892594467
  },
  {
    "name": "문래동 돈까스",
    "category": "분식",
    "city": "서울특별시",
    "district": "영등포구",
    "parcelAddress": "서울특별시 영등포구 문래동4가 9-7",
    "roadAddress": "서울특별시 영등포구 도림로147길 2, 1층 (문래동4가)",
    "districtPostal": "07288",
    "latitude": 37.51694176732229,
    "longitude": 126.88913449730896,
    "xCoordinate": 190129.339820301,
    "yCoordinate": 446063.090850075
  },
  {
    "name": "팡새로이",
    "category": "일식",
    "city": "서울특별시",
    "district": "송파구",
    "parcelAddress": "서울특별시 송파구 오금동 18-32",
    "roadAddress": "서울특별시 송파구 마천로7가길 10, 1층 (오금동)",
    "districtPostal": "05657",
    "latitude": 37.50927652189788,
    "longitude": 127.12799966335304,
    "xCoordinate": 211244.951193461,
    "yCoordinate": 445214.179706853
  },
  {
    "name": "그늘집",
    "category": "경양식",
    "city": "서울특별시",
    "district": "강동구",
    "parcelAddress": "서울특별시 강동구 성내동 428-6",
    "roadAddress": "서울특별시 강동구 양재대로 1349, 3층 (성내동)",
    "districtPostal": "05404",
    "latitude": 37.5269836398915,
    "longitude": 127.13535308168962,
    "xCoordinate": 211892.212204753,
    "yCoordinate": 447180.141558476
  },
  {
    "name": "명량간장게장(주) 마곡점",
    "category": "한식",
    "city": "서울특별시",
    "district": "강서구",
    "parcelAddress": "서울특별시 강서구 마곡동 797-4 발산파크프라자 (지상 2층) 208호",
    "roadAddress": "서울특별시 강서구 공항대로 261, 2층 208호 (마곡동, 가양 1동 발산파크프라자)",
    "districtPostal": "07803",
    "latitude": 37.55935622194355,
    "longitude": 126.8365195831038,
    "xCoordinate": 185486.670321459,
    "yCoordinate": 450776.897789941
  },
  {
    "name": "오늘통닭 사당점 & 아우라",
    "category": "한식",
    "city": "서울특별시",
    "district": "서초구",
    "parcelAddress": "서울특별시 서초구 방배동 452-6 1층",
    "roadAddress": "서울특별시 서초구 방배천로4길 1, 1층 (방배동)",
    "districtPostal": "06692",
    "latitude": 37.47852747215057,
    "longitude": 126.98287614327248,
    "xCoordinate": 198414.811048893,
    "yCoordinate": 441794.353073883
  },
  {
    "name": "낮밤",
    "category": "기타",
    "city": "서울특별시",
    "district": "강북구",
    "parcelAddress": "서울특별시 강북구 수유동 192-3 태광빌딩",
    "roadAddress": "서울특별시 강북구 한천로139나길 1, 태광빌딩 2층 (수유동)",
    "districtPostal": "01072",
    "latitude": 37.63927785520414,
    "longitude": 127.0252577414264,
    "xCoordinate": 202158.404849077,
    "yCoordinate": 459633.960977278
  },
  {
    "name": "생활맥주 매봉역점",
    "category": "기타",
    "city": "서울특별시",
    "district": "강남구",
    "parcelAddress": "서울특별시 강남구 도곡동 417",
    "roadAddress": "서울특별시 강남구 논현로38길 36, 1층 (도곡동)",
    "districtPostal": "06296",
    "latitude": 37.48565647082094,
    "longitude": 127.0447266561018,
    "xCoordinate": 203884.511966239,
    "yCoordinate": 442586.247767883
  },
  {
    "name": "쥐쥐엔비카페(GGNB_Cafe)",
    "category": "경양식",
    "city": "서울특별시",
    "district": "강서구",
    "parcelAddress": "서울특별시 강서구 내발산동 666-4 1층",
    "roadAddress": "서울특별시 강서구 강서로 330, 1층 (내발산동, 우장산동)",
    "districtPostal": "07652",
    "latitude": 37.55534463015959,
    "longitude": 126.8375037520707,
    "xCoordinate": 185572.843228502,
    "yCoordinate": 450331.554445763
  },
  {
    "name": "주식회사 라스피쉬",
    "category": "기타",
    "city": "서울특별시",
    "district": "강남구",
    "parcelAddress": "서울특별시 강남구 역삼동 798-25",
    "roadAddress": "서울특별시 강남구 논현로63길 15, 지상1층 A호 (역삼동)",
    "districtPostal": "06257",
    "latitude": 37.49300591692998,
    "longitude": 127.03946231857,
    "xCoordinate": 203418.642303453,
    "yCoordinate": 443401.648119696
  },
  {
    "name": "bhc 롯데월드 빅토리아점",
    "category": "기타",
    "city": "서울특별시",
    "district": "송파구",
    "parcelAddress": "서울특별시 송파구 잠실동 40-1 롯데월드",
    "roadAddress": "서울특별시 송파구 올림픽로 240, 롯데월드 매직아일랜드 1층 (잠실동)",
    "districtPostal": "05554",
    "latitude": 37.5114832268089,
    "longitude": 127.09796328419024,
    "xCoordinate": 208589.363343145,
    "yCoordinate": 445455.90405262
  },
  {
    "name": "쌍둥이네",
    "category": "한식",
    "city": "서울특별시",
    "district": "송파구",
    "parcelAddress": "서울특별시 송파구 가락동 600 가락동 농수산물도매시장",
    "roadAddress": "서울특별시 송파구 양재대로 932, 가락몰4관 편의시설  지하1층 055-1호 (가락동)",
    "districtPostal": "05699",
    "latitude": 37.493677306212255,
    "longitude": 127.1115294978176,
    "xCoordinate": 209790.959909032,
    "yCoordinate": 443481.212174317
  },
  {
    "name": "직화배기",
    "category": "한식",
    "city": "서울특별시",
    "district": "강남구",
    "parcelAddress": "서울특별시 강남구 역삼동 705-9",
    "roadAddress": "서울특별시 강남구 테헤란로 329, 지하1층 116호 (역삼동, 삼흥오피스텔)",
    "districtPostal": "06150",
    "latitude": 37.50484151619917,
    "longitude": 127.0474616017702,
    "xCoordinate": 204125.312646525,
    "yCoordinate": 444715.426086333
  },
  {
    "name": "오유부(OYUBU)",
    "category": "일식",
    "city": "서울특별시",
    "district": "영등포구",
    "parcelAddress": "서울특별시 영등포구 문래동5가 10 하우스디 비즈",
    "roadAddress": "서울특별시 영등포구 선유로3길 10, 하우스디 비즈 1층 128호 (문래동5가)",
    "districtPostal": "07285",
    "latitude": 37.51628575325875,
    "longitude": 126.88678617577912,
    "xCoordinate": 189921.671894763,
    "yCoordinate": 445990.538307199
  },
  {
    "name": "물고기주택 극진",
    "category": "기타",
    "city": "서울특별시",
    "district": "용산구",
    "parcelAddress": "서울특별시 용산구 한강로3가 40-137 지상1층",
    "roadAddress": "서울특별시 용산구 한강대로 57, 지상1층 (한강로3가)",
    "districtPostal": "04379",
    "latitude": 37.52633690769561,
    "longitude": 126.96463674176545,
    "xCoordinate": 196803.753932819,
    "yCoordinate": 447100.47859202
  },
  {
    "name": "초밥집",
    "category": "일식",
    "city": "서울특별시",
    "district": "관악구",
    "parcelAddress": "서울특별시 관악구 신림동 1525-7",
    "roadAddress": "서울특별시 관악구 호암로 596, 1층 (신림동)",
    "districtPostal": "08812",
    "latitude": 37.470621986660205,
    "longitude": 126.9336162676966,
    "xCoordinate": 194057.633027178,
    "yCoordinate": 440919.012931672
  },
  {
    "name": "모미모미 건대스타시티점",
    "category": "일식",
    "city": "서울특별시",
    "district": "광진구",
    "parcelAddress": "서울특별시 광진구 자양동 227-342 롯데백화점건대스타시티점 지하1층 델리코너",
    "roadAddress": "서울특별시 광진구 능동로 92 (자양동, 롯데백화점건대스타시티점 지하1층 델리코너)",
    "districtPostal": "05065",
    "latitude": 37.5389885753108,
    "longitude": 127.07115774660794,
    "xCoordinate": 206217.434726027,
    "yCoordinate": 448506.218743834
  },
  {
    "name": "꾸이한끼 잠실새내점",
    "category": "한식",
    "city": "서울특별시",
    "district": "송파구",
    "parcelAddress": "서울특별시 송파구 잠실동 190-6 향원빌딩",
    "roadAddress": "서울특별시 송파구 백제고분로9길 27, 향원빌딩 지하1층 3호 (잠실동)",
    "districtPostal": "05560",
    "latitude": 37.50998212004322,
    "longitude": 127.08214600966411,
    "xCoordinate": 207191.239016722,
    "yCoordinate": 445287.9917874
  },
  {
    "name": "해뜰날 포장마차",
    "category": "호프/통닭",
    "city": "서울특별시",
    "district": "종로구",
    "parcelAddress": "서울특별시 종로구 종로5가 246-2",
    "roadAddress": "서울특별시 종로구 종로38길 5 (종로5가)",
    "districtPostal": "03197",
    "latitude": 37.57078763430489,
    "longitude": 127.00511811873037,
    "xCoordinate": 200381.425149709,
    "yCoordinate": 452032.840004616
  },
  {
    "name": "화이트 브릭 야드 (WHITE BRICK YARD)",
    "category": "기타",
    "city": "서울특별시",
    "district": "중구",
    "parcelAddress": "서울특별시 중구 신당동 50-9 1층",
    "roadAddress": "서울특별시 중구 퇴계로80길 51-6, 1층 (신당동)",
    "districtPostal": "04585",
    "latitude": 37.5631763669655,
    "longitude": 127.0177473204392,
    "xCoordinate": 201497.131603847,
    "yCoordinate": 451188.295032816
  },